ID,Name,Longitude_WGS84,Latitude_WGS84,Street,AdmArea,District,RouteNumbers,StationName,Direction,Pavilion,OperatingOrgName,EntryState,global_id,geoData
65,"«Бескудниково», Дмитровское шоссе (от центра)",37.54811496,55.87427208,Дмитровское шоссе,Северный административный округ,Бескудниковский район,А179; А763К; А763; АТ78,Бескудниково,от центра,да,ГУП «Мосгортранс»,активна,1715951,"{type=Point, coordinates=[37.54811496, 55.87427208]}"
66,"«Баскетбольная школа», Дубнинская улица (от центра)",37.55775278,55.88068293,Дубнинская улица,Северный административный округ,район Восточное Дегунино,А799; А677К; А167; А179; А677,Баскетбольная школа,от центра,да,ГУП «Мосгортранс»,активна,1715952,"{type=Point, coordinates=[37.55775278, 55.88068293]}"
67,"«Д/к Юность», Дубнинская улица (от центра)",37.5577084088,55.8843275315,Дубнинская улица,Северный административный округ,район Восточное Дегунино,А799; А677К; А167; А179; А677,Д/к Юность,от центра,да,ГУП «Мосгортранс»,активна,1715953,"{type=Point, coordinates=[37.5577084088, 55.8843275315]}"
68,"«Мкр. Дубки», Дубнинская улица (от центра)",37.5576739643,55.8881514089,Дубнинская улица,Северный административный округ,район Восточное Дегунино,А799; А677К; А167; А179; А677,Мкр. Дубки,от центра,да,ГУП «Мосгортранс»,активна,1715954,"{type=Point, coordinates=[37.5576739643, 55.8881514089]}"
69,"«Ин-т Стали», Дубнинская улица (от центра)",37.55762874,55.89221605,Дубнинская улица,Северный административный округ,район Восточное Дегунино,А799; А677К; А167; А179; А677,Ин-т Стали,от центра,да,ГУП «Мосгортранс»,активна,1715955,"{type=Point, coordinates=[37.55762874, 55.89221605]}"
70,"«Керамический пр.», Дубнинская улица (от центра)",37.5575677861,55.8935280894,Дубнинская улица,Северный административный округ,район Восточное Дегунино,А799; А677К; А167; А179; А677,Керамический пр.,от центра,да,ГУП «Мосгортранс»,активна,1715956,"{type=Point, coordinates=[37.5575677861, 55.8935280894]}"
71,"«Платф. Лианозово (выс.)», Дубнинская улица (от центра)",37.55445131,55.89652393,Дубнинская улица,Северный административный округ,район Восточное Дегунино,А799; А677К; А167; А179; А677,Платф. Лианозово (выс.),от центра,нет,,активна,1715957,"{type=Point, coordinates=[37.55445131, 55.89652393]}"
72,"«Ст. Ховрино (пос.)», Ангарская улица (в центр)",37.51160056,55.86956661,Ангарская улица,Северный административный округ,район Западное Дегунино,А665; А748; А215К; А154; А928,Ст. Ховрино (пос.),в центр,да,ГУП «Мосгортранс»,активна,1715958,"{type=Point, coordinates=[37.51160056, 55.86956661]}"
73,"«Весенняя ул.», Ангарская улица (от центра)",37.51459808,55.87376954,Ангарская улица,Северный административный округ,район Западное Дегунино,А665; А928,Весенняя ул.,от центра,да,ГУП «Мосгортранс»,активна,1715959,"{type=Point, coordinates=[37.51459808, 55.87376954]}"
74,"«Мкр. Западное Дегунино», Ангарская улица (от центра)",37.5174212,55.87606574,Ангарская улица,Северный административный округ,район Западное Дегунино,А665; А928,Мкр. Западное Дегунино,от центра,да,ГУП «Мосгортранс»,активна,1715960,"{type=Point, coordinates=[37.5174212, 55.87606574]}"
75,"«Ангарская ул.», Коровинское шоссе (от центра)",37.52218296,55.87921929,Коровинское шоссе,Северный административный округ,Дмитровский район,А665; А799; А656; А114; АТ56,Ангарская ул.,от центра,да,ГУП «Мосгортранс»,активна,1715961,"{type=Point, coordinates=[37.52218296, 55.87921929]}"
76,"«Колледж № 7», Клязьминская улица (от центра)",37.52067236,55.88456731,Клязьминская улица,Северный административный округ,Дмитровский район,А665; А200; А194,Колледж № 7,от центра,да,ГУП «Мосгортранс»,активна,1715962,"{type=Point, coordinates=[37.52067236, 55.88456731]}"
77,"«Ин-т Микрохирургии глаза», Коровинское шоссе (в центр)",37.53738746,55.86877206,Коровинское шоссе,Северный административный округ,район Западное Дегунино,А194; А215К; А656; А672; АТ56,Ин-т Микрохирургии глаза,в центр,да,ГУП «Мосгортранс»,активна,1715963,"{type=Point, coordinates=[37.53738746, 55.86877206]}"
11,"«Наб. Тараса Шевченко», набережная Тараса Шевченко (от центра)",37.57271647,55.74976112,набережная Тараса Шевченко,Западный административный округ,район Дорогомилово,А157; А840,Наб. Тараса Шевченко,от центра,да,ЗАО «Валль-СНГ»,активна,1715965,"{type=Point, coordinates=[37.57271647, 55.74976112]}"
26,"«ВКНЦ», 3-я Черепковская улица (в центр)",37.37550932,55.7572642,3-я Черепковская улица,Западный административный округ,район Кунцево,А798; А816,ВКНЦ,в центр,да,ГУП «Мосгортранс»,активна,1715966,"{type=Point, coordinates=[37.37550932, 55.7572642]}"
32,"«Новосущевская ул.», улица Сущёвский Вал (в центр)",37.60337594,55.79289095,улица Сущёвский Вал,Северо-Восточный административный округ,район Марьина Роща,Тб42; АТ18; А126; А84К; А84,Новосущевская ул.,в центр,да,ООО «Праймсайт»,активна,1715967,"{type=Point, coordinates=[37.60337594, 55.79289095]}"
34,"«Керамический пр.», Дубнинская улица (в центр)",37.55724554,55.89460802,Дубнинская улица,Северный административный округ,район Восточное Дегунино,А799; А677К; А167; А179; А677,Керамический пр.,в центр,да,ГУП «Мосгортранс»,активна,1715968,"{type=Point, coordinates=[37.55724554, 55.89460802]}"
35,"«Ин-т Стали», Дубнинская улица (в центр)",37.55729147,55.89142924,Дубнинская улица,Северный административный округ,район Восточное Дегунино,А799; А677К; А167; А179; А677,Ин-т Стали,в центр,да,ГУП «Мосгортранс»,активна,1715969,"{type=Point, coordinates=[37.55729147, 55.89142924]}"
36,"«Мкр. Дубки», Дубнинская улица (в центр)",37.55730686,55.88768746,Дубнинская улица,Северный административный округ,район Восточное Дегунино,А799; А677К; А167; А179; А677,Мкр. Дубки,в центр,да,ГУП «Мосгортранс»,активна,1715970,"{type=Point, coordinates=[37.55730686, 55.88768746]}"
37,"«Д/к Юность», Дубнинская улица (в центр)",37.5573643949,55.8833589241,Дубнинская улица,Северный административный округ,район Восточное Дегунино,А799; А677К; А167; А179; А677,Д/к Юность,в центр,да,ГУП «Мосгортранс»,активна,1715971,"{type=Point, coordinates=[37.5573643949, 55.8833589241]}"
38,"«Баскетбольная школа», улица 800-летия Москвы (в центр)",37.55636146,55.88011364,улица 800-летия Москвы,Северный административный округ,район Восточное Дегунино,А748; А799; А857; А149; А167; А179,Баскетбольная школа,в центр,да,ГУП «Мосгортранс»,активна,1715972,"{type=Point, coordinates=[37.55636146, 55.88011364]}"
39,"«Ул. 800-летия Москвы», Дмитровское шоссе (в центр)",37.54599654,55.87767168,Дмитровское шоссе,Северный административный округ,Бескудниковский район,А179; А763К; А763; АТ78,Ул. 800-летия Москвы,в центр,да,ГУП «Мосгортранс»,активна,1715973,"{type=Point, coordinates=[37.54599654, 55.87767168]}"
40,"«Бескудниково», Дмитровское шоссе (в центр)",37.54704248,55.87458982,Дмитровское шоссе,Северный административный округ,Бескудниковский район,А179; А763К; А763; АТ78,Бескудниково,в центр,нет,,активна,1715974,"{type=Point, coordinates=[37.54704248, 55.87458982]}"
41,"«Селигерская ул.», Дмитровское шоссе (в центр)",37.54674812,55.86919544,Дмитровское шоссе,Северный административный округ,Бескудниковский район,А179; А763К; А763,Селигерская ул.,в центр,нет,,активна,1715975,"{type=Point, coordinates=[37.54674812, 55.86919544]}"
42,"«Парк Святослава Федорова», Дмитровское шоссе (в центр)",37.5484894912,55.8633348164,Дмитровское шоссе,Северный административный округ,район Западное Дегунино,А179; А194; А763К; А763; АТ56; АТ78,Парк Святослава Федорова,в центр,да,ГУП «Мосгортранс»,активна,1715976,"{type=Point, coordinates=[37.5484894912, 55.8633348164]}"
43,"«Ильменский пр.», Дмитровское шоссе (в центр)",37.55318989,55.86077256,Дмитровское шоссе,Северный административный округ,район Западное Дегунино,А179; А194; А763К; А763; АТ56; АТ78,Ильменский пр.,в центр,да,ГУП «Мосгортранс»,активна,1715977,"{type=Point, coordinates=[37.55318989, 55.86077256]}"
44,"«Ин-т Цветметавтоматика», Дмитровское шоссе (в центр)",37.5582614716,55.8582121735,Дмитровское шоссе,Северный административный округ,район Западное Дегунино,А179; А194; А763К; А763; АТ56; АТ78,Ин-т Цветметавтоматика,в центр,да,ГУП «Мосгортранс»,активна,1715978,"{type=Point, coordinates=[37.5582614716, 55.8582121735]}"
45,"«7-й автобусный парк», Дмитровское шоссе (в центр)",37.56585131,55.85033933,Дмитровское шоссе,Северный административный округ,район Западное Дегунино,А677К; А179; А194; А677; А114; А82; А692; А154,7-й автобусный парк,в центр,да,ГУП «Мосгортранс»,активна,1715979,"{type=Point, coordinates=[37.56585131, 55.85033933]}"
46,"«Нижн. Лихоборы», Дмитровское шоссе (в центр)",37.5673105,55.84733792,Дмитровское шоссе,Северный административный округ,Тимирязевский район,А179; А194; А114; А82; А692,Нижн. Лихоборы,в центр,да,ГУП «Мосгортранс»,активна,1715980,"{type=Point, coordinates=[37.5673105, 55.84733792]}"
47,"«Метро Петровско-Разумовская», Локомотивный проезд (от центра)",37.57585651,55.83716907,Локомотивный проезд,Северный административный округ,Тимирязевский район,А204; А114; АТ19,Метро Петровско-Разумовская,от центра,да,ГУП «Мосгортранс»,активна,1715981,"{type=Point, coordinates=[37.57585651, 55.83716907]}"
48,"«К/т Байкал», Большая Академическая улица (в центр)",37.53956854,55.8371443498,Большая Академическая улица,Северный административный округ,район Коптево,Тб57; А204; А179; А114; АТ19,К/т Байкал,в центр,да,ГУП «Мосгортранс»,активна,1715982,"{type=Point, coordinates=[37.53956854, 55.8371443498]}"
49,"«Стадион Наука», Большая Академическая улица (в центр)",37.5328525,55.83295208,Большая Академическая улица,Северный административный округ,район Коптево,Тб57; А204; А179; А114; АТ19,Стадион Наука,в центр,да,ГУП «Мосгортранс»,активна,1715983,"{type=Point, coordinates=[37.5328525, 55.83295208]}"
50,"«Управа района Коптево», улица Зои и Александра Космодемьянских (в центр)",37.52242762,55.82411549,улица Зои и Александра Космодемьянских,Северный административный округ,район Коптево,А204; А780; А179,Управа района Коптево,в центр,да,ГУП «Мосгортранс»,активна,1715984,"{type=Point, coordinates=[37.52242762, 55.82411549]}"
51,"«К/т Рассвет», улица Зои и Александра Космодемьянских (в центр)",37.51887274,55.82307265,улица Зои и Александра Космодемьянских,Северный административный округ,район Коптево,А204; А780; А179,К/т Рассвет,в центр,да,ГУП «Мосгортранс»,активна,1715985,"{type=Point, coordinates=[37.51887274, 55.82307265]}"
52,"«3-й Новоподмосковный пер.», улица Зои и Александра Космодемьянских (в центр) (1)",37.51071983,55.82087948,улица Зои и Александра Космодемьянских,Северный административный округ,Войковский район,А204; А780; А179,3-й Новоподмосковный пер.,в центр,нет,,активна,1715986,"{type=Point, coordinates=[37.51071983, 55.82087948]}"
53,"«3-й Новоподмосковный пер.», улица Зои и Александра Космодемьянских ( (от центра))(от центра)",37.51203859,55.8210445,улица Зои и Александра Космодемьянских,Северный административный округ,Войковский район,А204; А780; А179,3-й Новоподмосковный пер.,от центра,да,ГУП «Мосгортранс»,активна,1715987,"{type=Point, coordinates=[37.51203859, 55.8210445]}"
54,"«К/т Рассвет», улица Зои и Александра Космодемьянских (от центра)",37.51687828,55.82237098,улица Зои и Александра Космодемьянских,Северный административный округ,Войковский район,А204; А780; А179,К/т Рассвет,от центра,да,ГУП «Мосгортранс»,активна,1715988,"{type=Point, coordinates=[37.51687828, 55.82237098]}"
55,"«Управа района Коптево», улица Зои и Александра Космодемьянских (от центра)",37.5231852,55.82399093,улица Зои и Александра Космодемьянских,Северный административный округ,район Коптево,А204; А780; А179,Управа района Коптево,от центра,нет,,активна,1715989,"{type=Point, coordinates=[37.5231852, 55.82399093]}"
56,"«Стадион Наука», Большая Академическая улица (от центра)",37.53338601,55.83304516,Большая Академическая улица,Северный административный округ,район Коптево,Тб57; А204; А179; А114; АТ19,Стадион Наука,от центра,да,ГУП «Мосгортранс»,активна,1715990,"{type=Point, coordinates=[37.53338601, 55.83304516]}"
60,"«7-й автобусный парк», Дмитровское шоссе (от центра) (1)",37.56536026,55.85188534,Дмитровское шоссе,Северный административный округ,Бескудниковский район,А179; А194,7-й автобусный парк,от центра,нет,,активна,1715992,"{type=Point, coordinates=[37.56536026, 55.85188534]}"
61,"«Ин-т Цветметавтоматика», Дмитровское шоссе (от центра)",37.55947707,55.8580184,Дмитровское шоссе,Северный административный округ,Бескудниковский район,А179; А194; А763К; А763; АТ56; АТ47; Тб36; АТ78,Ин-т Цветметавтоматика,от центра,да,ГУП «Мосгортранс»,активна,1715993,"{type=Point, coordinates=[37.55947707, 55.8580184]}"
62,"«Ильменский пр.», Дмитровское шоссе (от центра)",37.5540423035,55.8609062765,Дмитровское шоссе,Северный административный округ,Бескудниковский район,А179; А194; А763К; А763; АТ56; АТ47; Тб36; АТ78,Ильменский пр.,от центра,да,ГУП «Мосгортранс»,активна,1715994,"{type=Point, coordinates=[37.5540423035, 55.8609062765]}"
63,"«Парк Святослава Федорова», Дмитровское шоссе (от центра)",37.5494665429,55.8634774047,Дмитровское шоссе,Северный административный округ,Бескудниковский район,А179; А194; А763К; А763; АТ56; АТ78,Парк Святослава Федорова,от центра,да,ГУП «Мосгортранс»,активна,1715995,"{type=Point, coordinates=[37.5494665429, 55.8634774047]}"
64,"«Селигерская ул.», Дмитровское шоссе (от центра) (1)",37.54748211,55.86854848,Дмитровское шоссе,Северный административный округ,Бескудниковский район,А179; А763К; А763; АТ78,Селигерская ул.,от центра,да,ГУП «Мосгортранс»,активна,1715996,"{type=Point, coordinates=[37.54748211, 55.86854848]}"
78,"«Селигерская ул.», Коровинское шоссе (в центр)",37.54227253,55.8664487,Коровинское шоссе,Северный административный округ,район Западное Дегунино,А194,Селигерская ул.,в центр,да,ГУП «Мосгортранс»,активна,1715997,"{type=Point, coordinates=[37.54227253, 55.8664487]}"
79,"«К/т Комсомолец», Дмитровское шоссе (в центр)",37.57003659,55.84090834,Дмитровское шоссе,Северный административный округ,Тимирязевский район,А194; А677; А114; АМ10,К/т Комсомолец,в центр,да,ГУП «Мосгортранс»,активна,1715998,"{type=Point, coordinates=[37.57003659, 55.84090834]}"
80,"«Педагогический колледж», Большая Академическая улица (в центр)",37.55288338,55.84201028,Большая Академическая улица,Северный административный округ,район Коптево,А123; Тб57; А204; А87; А179; А114; АТ19,Педагогический колледж,в центр,да,ГУП «Мосгортранс»,активна,1715999,"{type=Point, coordinates=[37.55288338, 55.84201028]}"
81,"«Университет Природообустройства», Большая Академическая улица (в центр)",37.54470218,55.83894722,Большая Академическая улица,Северный административный округ,район Коптево,Тб57; А204; А179; А114; АТ19,Университет Природообустройства,в центр,да,ГУП «Мосгортранс»,активна,1716000,"{type=Point, coordinates=[37.54470218, 55.83894722]}"
82,"«Роддом № 27», Большая Академическая улица (в центр)",37.53038275,55.8289194,Большая Академическая улица,Северный административный округ,район Коптево,Тб57; А204; А179; АТ19,Роддом № 27,в центр,да,ГУП «Мосгортранс»,активна,1716001,"{type=Point, coordinates=[37.53038275, 55.8289194]}"
83,"«Роддом № 27», Большая Академическая улица (от центра)",37.53085818,55.82911305,Большая Академическая улица,Северный административный округ,район Коптево,Тб57; А204; А179; АТ19,Роддом № 27,от центра,да,ГУП «Мосгортранс»,активна,1716002,"{type=Point, coordinates=[37.53085818, 55.82911305]}"
84,"«Университет Природообустройства», Большая Академическая улица (от центра)",37.54499163,55.83864991,Большая Академическая улица,Северный административный округ,Тимирязевский район,Тб57; А204; А179; А114; АТ19,Университет Природообустройства,от центра,да,ГУП «Мосгортранс»,активна,1716003,"{type=Point, coordinates=[37.54499163, 55.83864991]}"
85,"«Педагогический колледж», Большая Академическая улица (от центра)",37.5546848,55.84225467,Большая Академическая улица,Северный административный округ,Тимирязевский район,А123; Тб57; А204; А87; А179; А114; АТ19,Педагогический колледж,от центра,да,ГУП «Мосгортранс»,активна,1716004,"{type=Point, coordinates=[37.5546848, 55.84225467]}"
86,"«Метро Петровско-Разумовская», улица Линии Октябрьской Железной Дороги (в центр)",37.5755751,55.83730911,улица Линии Октябрьской Железной Дороги,Северный административный округ,Тимирязевский район,А194,Метро Петровско-Разумовская,в центр,да,ГУП «Мосгортранс»,активна,1716005,"{type=Point, coordinates=[37.5755751, 55.83730911]}"
6,"«Дербеневская наб.», 3-й Дербеневский переулок (от центра)",37.6551636,55.72566817,3-й Дербеневский переулок,Южный административный округ,Даниловский район,А632,Дербеневская наб.,от центра,да,ГУП «Мосгортранс»,активна,1716008,"{type=Point, coordinates=[37.6551636, 55.72566817]}"
149,"«Ф-ка игрушек», улица Клары Цеткин (в центр)",37.51240141,55.82918223,улица Клары Цеткин,Северный административный округ,Войковский район,А621; А90,Ф-ка игрушек,в центр,да,ГУП «Мосгортранс»,активна,1716011,"{type=Point, coordinates=[37.51240141, 55.82918223]}"
150,"«Старопетровский пр.», Старопетровский проезд (в центр)",37.50758103,55.82460143,Старопетровский проезд,Северный административный округ,Войковский район,А621; А90; А114,Старопетровский пр.,в центр,да,ГУП «Мосгортранс»,активна,1716012,"{type=Point, coordinates=[37.50758103, 55.82460143]}"
151,"«Онкологический диспансер», Старопетровский проезд (в центр)",37.50344704,55.82364048,Старопетровский проезд,Северный административный округ,Войковский район,А621; А90; А114,Онкологический диспансер,в центр,да,ГУП «Мосгортранс»,активна,1716013,"{type=Point, coordinates=[37.50344704, 55.82364048]}"
153,"«Коровинское ш.», Коровинское шоссе (в центр)",37.51857144,55.88231105,Коровинское шоссе,Северный административный округ,район Западное Дегунино,А665; А799; А656; А114; АТ56,Коровинское ш.,в центр,да,ГУП «Мосгортранс»,активна,1716014,"{type=Point, coordinates=[37.51857144, 55.88231105]}"
154,"«Талдомская ул.», улица 800-летия Москвы (от центра)",37.52852678,55.8751219,улица 800-летия Москвы,Северный административный округ,Дмитровский район,А748; А799; А857; А114; А154; А92; А284,Талдомская ул.,от центра,да,ГУП «Мосгортранс»,активна,1716015,"{type=Point, coordinates=[37.52852678, 55.8751219]}"
155,"«Ин-т Микрохирургии глаза», Бескудниковский бульвар (в центр)",37.53908121,55.87320802,Бескудниковский бульвар,Северный административный округ,Бескудниковский район,А167; А114; АМ10; А154,Ин-т Микрохирургии глаза,в центр,да,ГУП «Мосгортранс»,активна,1716016,"{type=Point, coordinates=[37.53908121, 55.87320802]}"
156,"«Муз. школа», Бескудниковский бульвар (в центр)",37.5438328,55.87348434,Бескудниковский бульвар,Северный административный округ,Бескудниковский район,А167; А114; АМ10; А154,Муз. школа,в центр,да,ГУП «Мосгортранс»,активна,1716017,"{type=Point, coordinates=[37.5438328, 55.87348434]}"
168,"«Метро Петровско-Разумовская», Локомотивный проезд (от центра) (1)",37.57571844,55.8372403,Локомотивный проезд,Северный административный округ,Тимирязевский район,А114,Метро Петровско-Разумовская,от центра,да,ГУП «Мосгортранс»,активна,1716018,"{type=Point, coordinates=[37.57571844, 55.8372403]}"
184,"«Детский сад», Нарвская улица (в центр)",37.50332207,55.84116825,Нарвская улица,Северный административный округ,Головинский район,А123; А565,Детский сад,в центр,да,ГУП «Мосгортранс»,активна,1716019,"{type=Point, coordinates=[37.50332207, 55.84116825]}"
185,"«3-й Лихачевский пер.», 3-й Лихачёвский переулок (от центра)",37.52188032,55.84887376,3-й Лихачёвский переулок,Северный административный округ,Головинский район,А123; А22,3-й Лихачевский пер.,от центра,да,ГУП «Мосгортранс»,активна,1716020,"{type=Point, coordinates=[37.52188032, 55.84887376]}"
126,"«Протезный з-д», Коровинское шоссе (от центра)",37.52851198,55.87373993,Коровинское шоссе,Северный административный округ,Дмитровский район,А194; А215К; А656; А672; АТ56; А92,Протезный з-д,от центра,да,ГУП «Мосгортранс»,активна,1716021,"{type=Point, coordinates=[37.52851198, 55.87373993]}"
127,"«Талдомская ул.», Коровинское шоссе (от центра)",37.5259288,55.87563883,Коровинское шоссе,Северный административный округ,Дмитровский район,А799; А194; А656; А672; А114; АТ56,Талдомская ул.,от центра,да,ГУП «Мосгортранс»,активна,1716022,"{type=Point, coordinates=[37.5259288, 55.87563883]}"
128,"«Ангарская ул.», Ангарская улица (от центра)",37.52488287,55.87892817,Ангарская улица,Северный административный округ,Дмитровский район,А194; А672; А928,Ангарская ул.,от центра,да,ГУП «Мосгортранс»,активна,1716023,"{type=Point, coordinates=[37.52488287, 55.87892817]}"
129,"«Ангарская ул., 49», Ангарская улица (от центра)",37.52936392,55.88135692,Ангарская улица,Северный административный округ,Дмитровский район,А194; А672; А928,"Ангарская ул., 49",от центра,да,ГУП «Мосгортранс»,активна,1716024,"{type=Point, coordinates=[37.52936392, 55.88135692]}"
130,"«Храм Матроны Московской», Ангарская улица (от центра)",37.53007852,55.88382937,Ангарская улица,Северный административный округ,Дмитровский район,А194; А672; А928,Храм Матроны Московской,от центра,да,ГУП «Мосгортранс»,активна,1716025,"{type=Point, coordinates=[37.53007852, 55.88382937]}"
131,"«Клязьминская ул.», Ангарская улица (от центра)",37.5253591113,55.8865758552,Ангарская улица,Северный административный округ,Дмитровский район,А194; А672,Клязьминская ул.,от центра,да,ГУП «Мосгортранс»,активна,1716026,"{type=Point, coordinates=[37.5253591113, 55.8865758552]}"
132,"«Учебный центр», Клязьминская улица (в центр)",37.52128998,55.88532526,Клязьминская улица,Северный административный округ,Дмитровский район,А665; А200; А194,Учебный центр,в центр,да,ГУП «Мосгортранс»,активна,1716027,"{type=Point, coordinates=[37.52128998, 55.88532526]}"
133,"«Школа им. Марш. Говорова», Смольная улица (от центра) (1)",37.48215583,55.86106097,Смольная улица,Северный административный округ,район Ховрино,А90,Школа им. Марш. Говорова,от центра,нет,,активна,1716028,"{type=Point, coordinates=[37.48215583, 55.86106097]}"
134,"«Смольная ул., 45», Смольная улица (от центра)",37.48021163,55.86265788,Смольная улица,Северный административный округ,район Ховрино,А90,"Смольная ул., 45",от центра,нет,,активна,1716029,"{type=Point, coordinates=[37.48021163, 55.86265788]}"
178,"«Муз. школа», Бескудниковский бульвар (от центра)",37.54269997,55.87363021,Бескудниковский бульвар,Северный административный округ,Бескудниковский район,А167; А114; АМ10; А154,Муз. школа,от центра,да,ГУП «Мосгортранс»,активна,1716030,"{type=Point, coordinates=[37.54269997, 55.87363021]}"
179,"«Ин-т Микрохирургии глаза», Бескудниковский бульвар (от центра)",37.53715086,55.87348554,Бескудниковский бульвар,Северный административный округ,Бескудниковский район,А167; А114; АМ10; А154,Ин-т Микрохирургии глаза,от центра,да,ГУП «Мосгортранс»,активна,1716031,"{type=Point, coordinates=[37.53715086, 55.87348554]}"
180,"«Коровинское ш.», Коровинское шоссе (от центра)",37.51786602,55.88341325,Коровинское шоссе,Северный административный округ,Дмитровский район,А799; А200; А656,Коровинское ш.,от центра,да,ГУП «Мосгортранс»,активна,1716032,"{type=Point, coordinates=[37.51786602, 55.88341325]}"
169,"«К/т Комсомолец», Дмитровское шоссе (от центра) (3)",37.57029254,55.84221842,Дмитровское шоссе,Северный административный округ,Тимирязевский район,А194; А114; АТ56; АТ47; А82; А692; АТ78,К/т Комсомолец,от центра,да,ГУП «Мосгортранс»,активна,1716033,"{type=Point, coordinates=[37.57029254, 55.84221842]}"
170,"«Нижн. Лихоборы», Дмитровское шоссе (от центра) (1)",37.56848803,55.84699926,Дмитровское шоссе,Северный административный округ,Тимирязевский район,А677К; А179; А194; А114; А82; А692; А154; АТ78,Нижн. Лихоборы,от центра,да,ГУП «Мосгортранс»,активна,1716034,"{type=Point, coordinates=[37.56848803, 55.84699926]}"
171,"«7-й автобусный парк», Дмитровское шоссе (от центра) (2)",37.5655145,55.85171839,Дмитровское шоссе,Северный административный округ,Бескудниковский район,А677К; А677; А114; АМ10; А82; А692,7-й автобусный парк,от центра,да,ГУП «Мосгортранс»,активна,1716035,"{type=Point, coordinates=[37.5655145, 55.85171839]}"
172,"«Торговый центр», Бескудниковский бульвар (от центра)",37.5616735836,55.8628546051,Бескудниковский бульвар,Северный административный округ,Бескудниковский район,А167; А114; АМ10; А154,Торговый центр,от центра,да,ГУП «Мосгортранс»,активна,1716036,"{type=Point, coordinates=[37.5616735836, 55.8628546051]}"
173,"«Бескудниковский пер.», Бескудниковский бульвар (от центра)",37.56012464,55.86490713,Бескудниковский бульвар,Северный административный округ,Бескудниковский район,А167; А114; АМ10; А154,Бескудниковский пер.,от центра,да,ГУП «Мосгортранс»,активна,1716037,"{type=Point, coordinates=[37.56012464, 55.86490713]}"
174,"«Рогачевский пер.», Бескудниковский бульвар (от центра)",37.55664809,55.86932066,Бескудниковский бульвар,Северный административный округ,Бескудниковский район,А167; А114; АМ10; А154,Рогачевский пер.,от центра,да,ГУП «Мосгортранс»,активна,1716038,"{type=Point, coordinates=[37.55664809, 55.86932066]}"
175,"«Школа № 656», Бескудниковский бульвар (от центра)",37.55392499,55.8726825,Бескудниковский бульвар,Северный административный округ,Бескудниковский район,А167; А114; АМ10; А154,Школа № 656,от центра,да,ГУП «Мосгортранс»,активна,1716039,"{type=Point, coordinates=[37.55392499, 55.8726825]}"
176,"«Аптека», Бескудниковский бульвар (от центра)",37.5508956,55.87378923,Бескудниковский бульвар,Северный административный округ,Бескудниковский район,А167; А114; АМ10; А154,Аптека,от центра,да,ГУП «Мосгортранс»,активна,1716040,"{type=Point, coordinates=[37.5508956, 55.87378923]}"
177,"«Бескудниково», Бескудниковский бульвар (от центра)",37.5464019242,55.873837739,Бескудниковский бульвар,Северный административный округ,Бескудниковский район,А167; А114; АМ10; А154,Бескудниково,от центра,да,ГУП «Мосгортранс»,активна,1716041,"{type=Point, coordinates=[37.5464019242, 55.873837739]}"
181,"«Кронштадтский бульв.», Кронштадтский бульвар (от центра)",37.49676253,55.84295524,Кронштадтский бульвар,Северный административный округ,Головинский район,А123; А698; А565; А65; А65К; А72,Кронштадтский бульв.,от центра,да,ГУП «Мосгортранс»,активна,1716042,"{type=Point, coordinates=[37.49676253, 55.84295524]}"
182,"«Гимназия № 1583», Кронштадтский бульвар (от центра)",37.4997610497,55.843699484,Кронштадтский бульвар,Северный административный округ,Головинский район,А123; А565; А65; А65К; А72,Гимназия № 1583,от центра,да,ГУП «Мосгортранс»,активна,1716043,"{type=Point, coordinates=[37.4997610497, 55.843699484]}"
183,"«Нарвская ул. - Университет Гражданской Авиации», Кронштадтский бульвар (от центра)",37.50222806,55.84379443,Кронштадтский бульвар,Северный административный округ,Головинский район,А123; А565,Нарвская ул. - Университет Гражданской Авиации,от центра,да,ГУП «Мосгортранс»,активна,1716044,"{type=Point, coordinates=[37.50222806, 55.84379443]}"
93,"«Колледж № 7», Клязьминская улица (в центр)",37.51853547,55.88351247,Клязьминская улица,Северный административный округ,Дмитровский район,А665; А194,Колледж № 7,в центр,да,ГУП «Мосгортранс»,активна,1716045,"{type=Point, coordinates=[37.51853547, 55.88351247]}"
94,"«Ангарская ул.», Ангарская улица (в центр)",37.5202723,55.87759056,Ангарская улица,Северный административный округ,район Западное Дегунино,А665; А928,Ангарская ул.,в центр,да,ГУП «Мосгортранс»,активна,1716046,"{type=Point, coordinates=[37.5202723, 55.87759056]}"
95,"«Мкр. Западное Дегунино», Ангарская улица (в центр)",37.51697285,55.87600214,Ангарская улица,Северный административный округ,район Западное Дегунино,А665; А928,Мкр. Западное Дегунино,в центр,да,ГУП «Мосгортранс»,активна,1716047,"{type=Point, coordinates=[37.51697285, 55.87600214]}"
96,"«Весенняя ул.», Ангарская улица (в центр)",37.51498184,55.87432548,Ангарская улица,Северный административный округ,район Западное Дегунино,А665; А928,Весенняя ул.,в центр,да,ГУП «Мосгортранс»,активна,1716048,"{type=Point, coordinates=[37.51498184, 55.87432548]}"
97,"«Ст. Ховрино (выс.)», Ангарская улица (в центр)",37.51078637,55.86998315,Ангарская улица,Северный административный округ,район Западное Дегунино,А665; А748; А215К; А154; А928,Ст. Ховрино (выс.),в центр,нет,,активна,1716049,"{type=Point, coordinates=[37.51078637, 55.86998315]}"
98,"«Онкологический диспансер», Старопетровский проезд (от центра)",37.50259018,55.82324046,Старопетровский проезд,Северный административный округ,Войковский район,А621; А90; А114,Онкологический диспансер,от центра,да,ГУП «Мосгортранс»,активна,1716050,"{type=Point, coordinates=[37.50259018, 55.82324046]}"
99,"«Старопетровский пр.», Старопетровский проезд (от центра)",37.50872434,55.82466889,Старопетровский проезд,Северный административный округ,Войковский район,А621; А90; А114,Старопетровский пр.,от центра,да,ГУП «Мосгортранс»,активна,1716051,"{type=Point, coordinates=[37.50872434, 55.82466889]}"
100,"«Ф-ка игрушек», улица Клары Цеткин (от центра)",37.51170757,55.82979654,улица Клары Цеткин,Северный административный округ,район Коптево,А621; А90,Ф-ка игрушек,от центра,да,ГУП «Мосгортранс»,активна,1716052,"{type=Point, coordinates=[37.51170757, 55.82979654]}"
102,"«Диспансер», Михалковская улица (в центр)",37.50611432,55.83722166,Михалковская улица,Северный административный округ,район Коптево,А123; А565; А621; А90,Диспансер,в центр,да,ГУП «Мосгортранс»,активна,1716054,"{type=Point, coordinates=[37.50611432, 55.83722166]}"
103,"«Электромеханический колледж», Михалковская улица (в центр)",37.51312248,55.83772474,Михалковская улица,Северный административный округ,район Коптево,А123; А565; А621; А90,Электромеханический колледж,в центр,нет,,активна,1716055,"{type=Point, coordinates=[37.51312248, 55.83772474]}"
104,"«Ф-ка им. Петра Алексеева», Михалковская улица (в центр)",37.51644356,55.8395005,Михалковская улица,Северный административный округ,район Коптево,А123; А565; А621; А90,Ф-ка им. Петра Алексеева,в центр,да,ГУП «Мосгортранс»,активна,1716056,"{type=Point, coordinates=[37.51644356, 55.8395005]}"
90,"«Метро Селигерская», Коровинское шоссе (от центра)",37.54477895,55.86556347,Коровинское шоссе,Северный административный округ,Бескудниковский район,А194; А215К; А656; А672; АТ56,Метро Селигерская,от центра,да,ГУП «Мосгортранс»,активна,1716058,"{type=Point, coordinates=[37.54477895, 55.86556347]}"
91,"«Селигерская ул.», Коровинское шоссе (от центра)",37.54054356,55.86754868,Коровинское шоссе,Северный административный округ,Бескудниковский район,А194; А215К; А656; А672; АТ56,Селигерская ул.,от центра,да,ГУП «Мосгортранс»,активна,1716059,"{type=Point, coordinates=[37.54054356, 55.86754868]}"
92,"«Ин-т Микрохирургии глаза», Коровинское шоссе (от центра) (1)",37.53539092,55.86998419,Коровинское шоссе,Северный административный округ,Бескудниковский район,А194; А215К; А656; А672; АТ56,Ин-т Микрохирургии глаза,от центра,да,ГУП «Мосгортранс»,активна,1716060,"{type=Point, coordinates=[37.53539092, 55.86998419]}"
105,"«Ст. Коптево», Михалковская улица (в центр)",37.51935117,55.84121915,Михалковская улица,Северный административный округ,район Коптево,А123; А565; А621; А90,Ст. Коптево,в центр,да,ГУП «Мосгортранс»,активна,1716061,"{type=Point, coordinates=[37.51935117, 55.84121915]}"
106,"«Онежская ул. - Колледж», Онежская улица (от центра)",37.52181196,55.84540799,Онежская улица,Северный административный округ,Головинский район,А123; А801; А565; А621; А90; А22; А72,Онежская ул. - Колледж,от центра,да,ГУП «Мосгортранс»,активна,1716062,"{type=Point, coordinates=[37.52181196, 55.84540799]}"
107,"«3-й Лихачевский пер.», Онежская улица (от центра)",37.52077371,55.84940542,Онежская улица,Северный административный округ,Головинский район,А801; А565; А621; А90; А72,3-й Лихачевский пер.,от центра,да,ГУП «Мосгортранс»,активна,1716063,"{type=Point, coordinates=[37.52077371, 55.84940542]}"
108,"«Онежская ул., 19», Онежская улица (от центра)",37.5192826,55.85217697,Онежская улица,Северный административный округ,Головинский район,А801; А565; А621; А90; А72,"Онежская ул., 19",от центра,да,ГУП «Мосгортранс»,активна,1716064,"{type=Point, coordinates=[37.5192826, 55.85217697]}"
109,"«Солнечногорская ул.», Онежская улица (от центра)",37.51306166,55.85651928,Онежская улица,Северный административный округ,Головинский район,А801; А621; А90; А65,Солнечногорская ул.,от центра,да,ГУП «Мосгортранс»,активна,1716065,"{type=Point, coordinates=[37.51306166, 55.85651928]}"
110,"«Флотская ул.», Онежская улица (от центра) (1)",37.508804660376,55.8595968610101,Онежская улица,Северный административный округ,Головинский район,А801; А90; А65,Флотская ул.,от центра,да,ГУП «Мосгортранс»,активна,1716066,"{type=Point, coordinates=[37.50880466037595, 55.859596861010075]}"
111,"«Фестивальная ул.», Петрозаводская улица (от центра)",37.50413371,55.86302215,Петрозаводская улица,Северный административный округ,район Ховрино,А801; А90; А233,Фестивальная ул.,от центра,да,ГУП «Мосгортранс»,активна,1716067,"{type=Point, coordinates=[37.50413371, 55.86302215]}"
112,"«М-н Книги», Петрозаводская улица (от центра)",37.5002661697,55.8647419791,Петрозаводская улица,Северный административный округ,район Ховрино,А801; А90; А233,М-н Книги,от центра,да,ГУП «Мосгортранс»,активна,1716068,"{type=Point, coordinates=[37.5002661697, 55.8647419791]}"
113,"«Аптека», Петрозаводская улица (от центра)",37.49690351,55.86590354,Петрозаводская улица,Северный административный округ,район Ховрино,А801; А90; А233,Аптека,от центра,да,ГУП «Мосгортранс»,активна,1716069,"{type=Point, coordinates=[37.49690351, 55.86590354]}"
114,"«Петрозаводская ул.», Петрозаводская улица (от центра) (1)",37.49047802,55.86710975,Петрозаводская улица,Северный административный округ,район Ховрино,Тб58; А801; А90,Петрозаводская ул.,от центра,да,ГУП «Мосгортранс»,активна,1716070,"{type=Point, coordinates=[37.49047802, 55.86710975]}"
115,"«15-й таксомоторный парк», Беломорская улица (в центр)",37.4835904385,55.8670126721,Беломорская улица,Северный административный округ,район Ховрино,Тб58; А90,15-й таксомоторный парк,в центр,да,ГУП «Мосгортранс»,активна,1716071,"{type=Point, coordinates=[37.4835904385, 55.8670126721]}"
116,"«Экономический университет», Смольная улица (в центр)",37.47723461,55.86516218,Смольная улица,Северный административный округ,район Левобережный,Тб58; А173; А199; А90; А400; А851,Экономический университет,в центр,нет,,активна,1716072,"{type=Point, coordinates=[37.47723461, 55.86516218]}"
117,"«Смольная ул., 45», Смольная улица (в центр)",37.47967752,55.86286328,Смольная улица,Северный административный округ,район Левобережный,Тб58; А173; А199; А90; А851,"Смольная ул., 45",в центр,нет,,активна,1716073,"{type=Point, coordinates=[37.47967752, 55.86286328]}"
118,"«Школа им. Марш. Говорова», Смольная улица (в центр)",37.48150745,55.86127796,Смольная улица,Северный административный округ,район Левобережный,Тб58; А173; А199; А90; А851,Школа им. Марш. Говорова,в центр,нет,,активна,1716074,"{type=Point, coordinates=[37.48150745, 55.86127796]}"
119,"«Смольная ул.», Фестивальная улица (в центр)",37.48466984,55.8581037,Фестивальная улица,Северный административный округ,район Левобережный,Тб58; А173; А199; А801; А857; А90; А200; А233; А851; А284,Смольная ул.,в центр,да,ГУП «Мосгортранс»,активна,1716075,"{type=Point, coordinates=[37.48466984, 55.8581037]}"
120,"«Автокомбинат № 3», улица Линии Октябрьской Железной Дороги (в центр)",37.56315646,55.84366117,улица Линии Октябрьской Железной Дороги,Северный административный округ,Тимирязевский район,А123; А204; А114; АТ19,Автокомбинат № 3,в центр,нет,,активна,1716076,"{type=Point, coordinates=[37.56315646, 55.84366117]}"
121,"«Учебный центр», Клязьминская улица (от центра)",37.52235692,55.88559693,Клязьминская улица,Северный административный округ,Дмитровский район,А665; А200; А194,Учебный центр,от центра,да,ГУП «Мосгортранс»,активна,1716077,"{type=Point, coordinates=[37.52235692, 55.88559693]}"
122,"«Клязьминская ул.», Ангарская улица (в центр)",37.5257866,55.88619486,Ангарская улица,Северный административный округ,Дмитровский район,А194; А672,Клязьминская ул.,в центр,да,ГУП «Мосгортранс»,активна,1716078,"{type=Point, coordinates=[37.5257866, 55.88619486]}"
123,"«Храм Матроны Московской», Ангарская улица (в центр)",37.52949825,55.88299191,Ангарская улица,Северный административный округ,Дмитровский район,А194; А672; А928,Храм Матроны Московской,в центр,да,ГУП «Мосгортранс»,активна,1716079,"{type=Point, coordinates=[37.52949825, 55.88299191]}"
124,"«Ангарская ул., 49», Ангарская улица (в центр)",37.5289602,55.88104652,Ангарская улица,Северный административный округ,Дмитровский район,А194; А672; А928,"Ангарская ул., 49",в центр,да,ГУП «Мосгортранс»,активна,1716080,"{type=Point, coordinates=[37.5289602, 55.88104652]}"
125,"«Ангарская ул.», Коровинское шоссе (в центр)",37.52317839,55.87781596,Коровинское шоссе,Северный административный округ,район Западное Дегунино,А799; А194; А656; А672; А114; АТ56,Ангарская ул.,в центр,да,ГУП «Мосгортранс»,активна,1716081,"{type=Point, coordinates=[37.52317839, 55.87781596]}"
157,"«Аптека», Бескудниковский бульвар (в центр)",37.5524069,55.87321427,Бескудниковский бульвар,Северный административный округ,Бескудниковский район,А167; А114; АМ10; А154,Аптека,в центр,да,ГУП «Мосгортранс»,активна,1716082,"{type=Point, coordinates=[37.5524069, 55.87321427]}"
158,"«Школа № 656», Бескудниковский бульвар (в центр)",37.554861,55.87114913,Бескудниковский бульвар,Северный административный округ,Бескудниковский район,А167; А114; АМ10; А154,Школа № 656,в центр,да,ГУП «Мосгортранс»,активна,1716083,"{type=Point, coordinates=[37.554861, 55.87114913]}"
159,"«Рогачевский пер.», Бескудниковский бульвар (в центр)",37.55767154,55.86750227,Бескудниковский бульвар,Северный административный округ,Бескудниковский район,А167; А114; АМ10; А154,Рогачевский пер.,в центр,да,ГУП «Мосгортранс»,активна,1716084,"{type=Point, coordinates=[37.55767154, 55.86750227]}"
160,"«Бескудниковский пер.», Бескудниковский бульвар (в центр)",37.56080902,55.86350936,Бескудниковский бульвар,Северный административный округ,Бескудниковский район,А167; А114; АМ10; АТ47; Тб36; А154,Бескудниковский пер.,в центр,да,ГУП «Мосгортранс»,активна,1716085,"{type=Point, coordinates=[37.56080902, 55.86350936]}"
161,"«Торговый центр», Бескудниковский бульвар (в центр)",37.5619061,55.86192215,Бескудниковский бульвар,Северный административный округ,Бескудниковский район,А167; А114; А154,Торговый центр,в центр,да,ГУП «Мосгортранс»,активна,1716086,"{type=Point, coordinates=[37.5619061, 55.86192215]}"
162,"«Роддом № 27», Коптевский бульвар (от центра)",37.52868045,55.83113889,Коптевский бульвар,Северный административный округ,район Коптево,А114,Роддом № 27,от центра,нет,,активна,1716087,"{type=Point, coordinates=[37.52868045, 55.83113889]}"
163,"«Коптевский рынок», Коптевский бульвар (от центра)",37.52185322,55.83295193,Коптевский бульвар,Северный административный округ,район Коптево,А114,Коптевский рынок,от центра,да,ГУП «Мосгортранс»,активна,1716088,"{type=Point, coordinates=[37.52185322, 55.83295193]}"
164,"«Коптевская ул.», Коптевская улица (в центр)",37.51809726,55.82930661,Коптевская улица,Северный административный округ,район Коптево,А114,Коптевская ул.,в центр,да,ГУП «Мосгортранс»,активна,1716089,"{type=Point, coordinates=[37.51809726, 55.82930661]}"
165,"«Коптевская ул.», Коптевская улица (от центра)",37.51910841,55.83087861,Коптевская улица,Северный административный округ,район Коптево,А114,Коптевская ул.,от центра,да,ГУП «Мосгортранс»,активна,1716090,"{type=Point, coordinates=[37.51910841, 55.83087861]}"
166,"«Коптевский рынок», Коптевский бульвар (в центр) (1)",37.52114845,55.83208078,Коптевский бульвар,Северный административный округ,район Коптево,А114,Коптевский рынок,в центр,да,ГУП «Мосгортранс»,активна,1716091,"{type=Point, coordinates=[37.52114845, 55.83208078]}"
167,"«Роддом № 27», Коптевский бульвар (в центр) (1)",37.52758635,55.83028842,Коптевский бульвар,Северный административный округ,район Коптево,А114,Роддом № 27,в центр,да,ГУП «Мосгортранс»,активна,1716092,"{type=Point, coordinates=[37.52758635, 55.83028842]}"
135,"«15-й таксомоторный парк», Петрозаводская улица (в центр)",37.48607811,55.86682693,Петрозаводская улица,Северный административный округ,район Ховрино,Тб58; А801; А90,15-й таксомоторный парк,в центр,да,ГУП «Мосгортранс»,активна,1716093,"{type=Point, coordinates=[37.48607811, 55.86682693]}"
136,"«Петрозаводская ул.», Петрозаводская улица (в центр)",37.49280228,55.86659387,Петрозаводская улица,Северный административный округ,район Ховрино,А801; А90; А233,Петрозаводская ул.,в центр,да,ГУП «Мосгортранс»,активна,1716094,"{type=Point, coordinates=[37.49280228, 55.86659387]}"
137,"«Аптека», Петрозаводская улица (в центр)",37.49827389,55.86519568,Петрозаводская улица,Северный административный округ,район Ховрино,А801; А90; А233,Аптека,в центр,да,ГУП «Мосгортранс»,активна,1716095,"{type=Point, coordinates=[37.49827389, 55.86519568]}"
138,"«М-н Книги», Петрозаводская улица (в центр)",37.50203569,55.8638077,Петрозаводская улица,Северный административный округ,район Ховрино,А801; А90; А233,М-н Книги,в центр,да,ГУП «Мосгортранс»,активна,1716096,"{type=Point, coordinates=[37.50203569, 55.8638077]}"
139,"«Фестивальная ул.», Онежская улица (в центр)",37.50578236,55.86149281,Онежская улица,Северный административный округ,район Ховрино,А801; А90; А65,Фестивальная ул.,в центр,да,ГУП «Мосгортранс»,активна,1716097,"{type=Point, coordinates=[37.50578236, 55.86149281]}"
140,"«Флотская ул.», Онежская улица (в центр)",37.50941753,55.85883776,Онежская улица,Северный административный округ,район Ховрино,А801; А90; А65,Флотская ул.,в центр,да,ГУП «Мосгортранс»,активна,1716098,"{type=Point, coordinates=[37.50941753, 55.85883776]}"
141,"«Солнечногорская ул.», Онежская улица (в центр)",37.51406707,55.85536084,Онежская улица,Северный административный округ,Головинский район,А801; А565; А621; А90; А65; А65К,Солнечногорская ул.,в центр,да,ГУП «Мосгортранс»,активна,1716099,"{type=Point, coordinates=[37.51406707, 55.85536084]}"
142,"«Онежская ул., 19», Онежская улица (в центр)",37.51918742,55.85154723,Онежская улица,Северный административный округ,Головинский район,А801; А565; А621; А90; А72,"Онежская ул., 19",в центр,да,ГУП «Мосгортранс»,активна,1716100,"{type=Point, coordinates=[37.51918742, 55.85154723]}"
143,"«Онежская ул. - Колледж», Онежская улица (в центр)",37.52157813,55.84409988,Онежская улица,Северный административный округ,Головинский район,А123; А801; А565; А621; А90; А22; А72,Онежская ул. - Колледж,в центр,да,ГУП «Мосгортранс»,активна,1716101,"{type=Point, coordinates=[37.52157813, 55.84409988]}"
144,"«Ст. Коптево», Михалковская улица (от центра)",37.51813253,55.84121009,Михалковская улица,Северный административный округ,Головинский район,А123; А565; А621; А90,Ст. Коптево,от центра,да,ГУП «Мосгортранс»,активна,1716102,"{type=Point, coordinates=[37.51813253, 55.84121009]}"
145,"«Ф-ка им. Петра Алексеева», Михалковская улица (от центра)",37.51580279,55.83910127,Михалковская улица,Северный административный округ,Головинский район,А123; А565; А621; А90,Ф-ка им. Петра Алексеева,от центра,да,ГУП «Мосгортранс»,активна,1716103,"{type=Point, coordinates=[37.51580279, 55.83910127]}"
146,"«Электромеханический колледж», Михалковская улица (от центра)",37.51182132,55.83778569,Михалковская улица,Северный административный округ,Головинский район,А123; А565; А621; А90,Электромеханический колледж,от центра,да,ГУП «Мосгортранс»,активна,1716104,"{type=Point, coordinates=[37.51182132, 55.83778569]}"
186,"«База механизации», 4-й Лихачёвский переулок (от центра)",37.52713334,55.85108758,4-й Лихачёвский переулок,Северный административный округ,Головинский район,А123; А22,База механизации,от центра,да,ГУП «Мосгортранс»,активна,1716105,"{type=Point, coordinates=[37.52713334, 55.85108758]}"
187,"«Лихоборская наб. - Хим-тех. з-д», Автомоторная улица (в центр)",37.5305915,55.8527395,Автомоторная улица,Северный административный округ,Головинский район,А123; А22,Лихоборская наб. - Хим-тех. з-д,в центр,да,ГУП «Мосгортранс»,активна,1716106,"{type=Point, coordinates=[37.5305915, 55.8527395]}"
188,"«Автомоторная ул.», Автомоторная улица (в центр)",37.53651595,55.84925437,Автомоторная улица,Северный административный округ,Головинский район,А123; А22,Автомоторная ул.,в центр,да,ГУП «Мосгортранс»,активна,1716107,"{type=Point, coordinates=[37.53651595, 55.84925437]}"
190,"«Кадетский корпус полиции», 4-й Новомихалковский проезд (в центр)",37.54339623,55.84284476,4-й Новомихалковский проезд,Северный административный округ,район Коптево,А123; А87,Кадетский корпус полиции,в центр,да,ГУП «Мосгортранс»,активна,1716109,"{type=Point, coordinates=[37.54339623, 55.84284476]}"
192,"«Митинская ул., 48», Митинская улица (в центр)",37.35496588,55.84954574,Митинская улица,Северо-Западный административный округ,район Митино,АС3; А741; А959; А266; А614,"Митинская ул., 48",в центр,да,ГУП «Мосгортранс»,активна,1716111,"{type=Point, coordinates=[37.35496588, 55.84954574]}"
193,"«4-й Новомихалковский пр. - Поликлиника № 159», 4-й Новомихалковский проезд (от центра) (1)",37.54506468,55.84075235,4-й Новомихалковский проезд,Северный административный округ,район Коптево,А123; А87,4-й Новомихалковский пр. - Поликлиника № 159,от центра,да,ГУП «Мосгортранс»,активна,1716112,"{type=Point, coordinates=[37.54506468, 55.84075235]}"
194,"«Кадетский корпус полиции», 4-й Новомихалковский проезд (от центра)",37.54341964,55.84320609,4-й Новомихалковский проезд,Северный административный округ,район Коптево,А123; А87,Кадетский корпус полиции,от центра,да,ГУП «Мосгортранс»,активна,1716113,"{type=Point, coordinates=[37.54341964, 55.84320609]}"
195,"«НАМИ», Автомоторная улица (от центра)",37.54100334,55.8464752,Автомоторная улица,Северный административный округ,Головинский район,А123; А22,НАМИ,от центра,да,ГУП «Мосгортранс»,активна,1716114,"{type=Point, coordinates=[37.54100334, 55.8464752]}"
196,"«Автомоторная ул.», Автомоторная улица (от центра)",37.53602663,55.84995017,Автомоторная улица,Северный административный округ,Головинский район,А123; А22,Автомоторная ул.,от центра,да,ГУП «Мосгортранс»,активна,1716115,"{type=Point, coordinates=[37.53602663, 55.84995017]}"
197,"«Лихоборская наб. - Хим-тех. з-д», Автомоторная улица (от центра)",37.53094503,55.85291772,Автомоторная улица,Северный административный округ,Головинский район,А123; А22,Лихоборская наб. - Хим-тех. з-д,от центра,да,ГУП «Мосгортранс»,активна,1716116,"{type=Point, coordinates=[37.53094503, 55.85291772]}"
198,"«База механизации», 4-й Лихачёвский переулок (в центр)",37.5270668,55.85127231,4-й Лихачёвский переулок,Северный административный округ,Головинский район,А123; А22,База механизации,в центр,да,ГУП «Мосгортранс»,активна,1716117,"{type=Point, coordinates=[37.5270668, 55.85127231]}"
200,"«Диспансер», Нарвская улица (от центра)",37.50476566,55.83753521,Нарвская улица,Северный административный округ,Головинский район,А123; А565,Диспансер,от центра,да,ГУП «Мосгортранс»,активна,1716118,"{type=Point, coordinates=[37.50476566, 55.83753521]}"
201,"«Детский сад», Нарвская улица (от центра)",37.50345789,55.84200552,Нарвская улица,Северный административный округ,Головинский район,А123; А565,Детский сад,от центра,да,ГУП «Мосгортранс»,активна,1716119,"{type=Point, coordinates=[37.50345789, 55.84200552]}"
202,"«Гимназия № 1583», Кронштадтский бульвар (в центр)",37.49912551,55.84370335,Кронштадтский бульвар,Северный административный округ,Головинский район,А123; А698; А565; А65; А65К; А72,Гимназия № 1583,в центр,да,ГУП «Мосгортранс»,активна,1716120,"{type=Point, coordinates=[37.49912551, 55.84370335]}"
203,"«Кронштадтский бульв.», Кронштадтский бульвар (в центр)",37.49584482,55.84289574,Кронштадтский бульвар,Северный административный округ,Головинский район,А123; А698; А565; А65; А65К; А72,Кронштадтский бульв.,в центр,да,ГУП «Мосгортранс»,активна,1716121,"{type=Point, coordinates=[37.49584482, 55.84289574]}"
205,"«15-й таксомоторный парк», улица Дыбенко (от центра)",37.48465472,55.86851809,улица Дыбенко,Северный административный округ,район Ховрино,А200,15-й таксомоторный парк,от центра,да,ГУП «Мосгортранс»,активна,1716122,"{type=Point, coordinates=[37.48465472, 55.86851809]}"
207,"«Интернат», Смольная улица (в центр)",37.46875212,55.87324867,Смольная улица,Северный административный округ,район Левобережный,А173; А65,Интернат,в центр,да,ГУП «Мосгортранс»,активна,1716124,"{type=Point, coordinates=[37.46875212, 55.87324867]}"
208,"«11-й автобусный парк - Киностудия», Смольная улица (в центр)",37.47087508,55.87122038,Смольная улица,Северный административный округ,район Левобережный,А173,11-й автобусный парк - Киностудия,в центр,да,ГУП «Мосгортранс»,активна,1716125,"{type=Point, coordinates=[37.47087508, 55.87122038]}"
209,"«Смольная ул., 61», Смольная улица (в центр)",37.47291097,55.86924721,Смольная улица,Северный административный округ,район Левобережный,А173,"Смольная ул., 61",в центр,да,ГУП «Мосгортранс»,активна,1716126,"{type=Point, coordinates=[37.47291097, 55.86924721]}"
210,"«Поликлиника», Смольная улица (в центр)",37.47593628,55.86632944,Смольная улица,Северный административный округ,район Левобережный,А173,Поликлиника,в центр,да,ГУП «Мосгортранс»,активна,1716127,"{type=Point, coordinates=[37.47593628, 55.86632944]}"
211,"«Смольная ул.», Фестивальная улица (от центра)",37.4860899,55.85820315,Фестивальная улица,Северный административный округ,район Левобережный,А801; А857; А200; А233; А284,Смольная ул.,от центра,да,ГУП «Мосгортранс»,активна,1716128,"{type=Point, coordinates=[37.4860899, 55.85820315]}"
212,"«Фестивальная ул., 14», Фестивальная улица (от центра)",37.49617308,55.86018085,Фестивальная улица,Северный административный округ,район Ховрино,А857; А233; А284,"Фестивальная ул., 14",от центра,да,ГУП «Мосгортранс»,активна,1716129,"{type=Point, coordinates=[37.49617308, 55.86018085]}"
213,"«Фестивальная ул., 65», Фестивальная улица (от центра)",37.50113583,55.8609953,Фестивальная улица,Северный административный округ,район Ховрино,А857; А233; А284,"Фестивальная ул., 65",от центра,да,ГУП «Мосгортранс»,активна,1716130,"{type=Point, coordinates=[37.50113583, 55.8609953]}"
215,"«Фестивальная ул.», Фестивальная улица (в центр)",37.50368468,55.86192982,Фестивальная улица,Северный административный округ,район Ховрино,А857; А233; А284,Фестивальная ул.,в центр,да,ГУП «Мосгортранс»,активна,1716131,"{type=Point, coordinates=[37.50368468, 55.86192982]}"
216,"«Фестивальная ул., 14», Фестивальная улица (в центр)",37.49502105,55.86023665,Фестивальная улица,Северный административный округ,район Ховрино,А857; А233; А284,"Фестивальная ул., 14",в центр,да,ГУП «Мосгортранс»,активна,1716132,"{type=Point, coordinates=[37.49502105, 55.86023665]}"
217,"«Поликлиника», Смольная улица (от центра)",37.47572273,55.86691808,Смольная улица,Северный административный округ,район Левобережный,А173,Поликлиника,от центра,да,ГУП «Мосгортранс»,активна,1716133,"{type=Point, coordinates=[37.47572273, 55.86691808]}"
218,"«Смольная ул., 61», Смольная улица (от центра)",37.47250317,55.87006376,Смольная улица,Северный административный округ,район Левобережный,А173,"Смольная ул., 61",от центра,да,ГУП «Мосгортранс»,активна,1716134,"{type=Point, coordinates=[37.47250317, 55.87006376]}"
219,"«11-й автобусный парк - Киностудия», Смольная улица (от центра)",37.47042618,55.87205598,Смольная улица,Северный административный округ,район Левобережный,А173,11-й автобусный парк - Киностудия,от центра,да,ГУП «Мосгортранс»,активна,1716135,"{type=Point, coordinates=[37.47042618, 55.87205598]}"
221,"«Фестивальная ул.», Фестивальная улица (от центра)",37.50674921,55.86280819,Фестивальная улица,Северный административный округ,Головинский район,А857; А65; А284,Фестивальная ул.,от центра,да,ГУП «Мосгортранс»,активна,1716137,"{type=Point, coordinates=[37.50674921, 55.86280819]}"
266,"«Сенежская ул.», Сенежская улица (от центра)",37.51423581,55.86089426,Сенежская улица,Северный административный округ,Головинский район,А70,Сенежская ул.,от центра,нет,,активна,1716138,"{type=Point, coordinates=[37.51423581, 55.86089426]}"
267,"«Солнечногорская ул.», Солнечногорская улица (в центр)",37.51401468,55.85642813,Солнечногорская улица,Северный административный округ,Головинский район,А698; А565; А70; А65; А65К,Солнечногорская ул.,в центр,да,ГУП «Мосгортранс»,активна,1716139,"{type=Point, coordinates=[37.51401468, 55.85642813]}"
268,"«Флотская ул.», Флотская улица (в центр)",37.50859495,55.85691524,Флотская улица,Северный административный округ,район Ховрино,А698; А70; А621,Флотская ул.,в центр,да,ГУП «Мосгортранс»,активна,1716140,"{type=Point, coordinates=[37.50859495, 55.85691524]}"
224,"«Зеленоградская ул., 21», Зеленоградская улица (от центра)",37.4973747726,55.873851468,Зеленоградская улица,Северный административный округ,район Ховрино,А65,"Зеленоградская ул., 21",от центра,да,ГУП «Мосгортранс»,активна,1716143,"{type=Point, coordinates=[37.4973747726, 55.873851468]}"
225,"«Почта», Зеленоградская улица (от центра)",37.49362797,55.8755477,Зеленоградская улица,Северный административный округ,район Ховрино,А65,Почта,от центра,да,ГУП «Мосгортранс»,активна,1716144,"{type=Point, coordinates=[37.49362797, 55.8755477]}"
226,"«Зеленоградская ул., 39», Зеленоградская улица (от центра)",37.4892187714,55.8773550191,Зеленоградская улица,Северный административный округ,район Ховрино,А65,"Зеленоградская ул., 39",от центра,да,ГУП «Мосгортранс»,активна,1716145,"{type=Point, coordinates=[37.4892187714, 55.8773550191]}"
227,"«Зеленоградская ул., 39», Зеленоградская улица (в центр)",37.4898772949,55.8768615866,Зеленоградская улица,Северный административный округ,район Ховрино,А65,"Зеленоградская ул., 39",в центр,да,ГУП «Мосгортранс»,активна,1716146,"{type=Point, coordinates=[37.4898772949, 55.8768615866]}"
228,"«Почта», Зеленоградская улица (в центр)",37.49462501,55.87495346,Зеленоградская улица,Северный административный округ,район Ховрино,А65,Почта,в центр,да,ГУП «Мосгортранс»,активна,1716147,"{type=Point, coordinates=[37.49462501, 55.87495346]}"
229,"«Зеленоградская ул., 21», Зеленоградская улица (в центр)",37.4983597251,55.8729727395,Зеленоградская улица,Северный административный округ,район Ховрино,А65,"Зеленоградская ул., 21",в центр,да,ГУП «Мосгортранс»,активна,1716148,"{type=Point, coordinates=[37.4983597251, 55.8729727395]}"
231,"«Б-ца - Библиотека им. Короленко», Фестивальная улица (в центр)",37.50768663,55.8636384,Фестивальная улица,Северный административный округ,район Ховрино,А857; А65; А284,Б-ца - Библиотека им. Короленко,в центр,да,ГУП «Мосгортранс»,активна,1716150,"{type=Point, coordinates=[37.50768663, 55.8636384]}"
232,"«Фестивальная ул., 65», Фестивальная улица (в центр)",37.49975463,55.86101472,Фестивальная улица,Северный административный округ,район Ховрино,А857; А233; А284,"Фестивальная ул., 65",в центр,да,ГУП «Мосгортранс»,активна,1716151,"{type=Point, coordinates=[37.49975463, 55.86101472]}"
235,"«1-й Пехотный пер.», улица Академика Курчатова (в центр)",37.47673416,55.80552919,улица Академика Курчатова,Северо-Западный административный округ,район Щукино,А105; А800,1-й Пехотный пер.,в центр,да,ГУП «Мосгортранс»,активна,1716152,"{type=Point, coordinates=[37.47673416, 55.80552919]}"
236,"«Сосновая ул.», Сосновая улица (в центр)",37.47964794,55.80676444,Сосновая улица,Северо-Западный административный округ,район Щукино,А105; А800,Сосновая ул.,в центр,да,ГУП «Мосгортранс»,активна,1716153,"{type=Point, coordinates=[37.47964794, 55.80676444]}"
237,"«Детский сад», Пехотная улица (от центра)",37.48400637,55.80634772,Пехотная улица,Северо-Западный административный округ,район Щукино,А105; А800,Детский сад,от центра,да,ГУП «Мосгортранс»,активна,1716154,"{type=Point, coordinates=[37.48400637, 55.80634772]}"
238,"«1-й Волоколамский пр.», 1-й Волоколамский проезд (в центр)",37.49033661,55.80305908,1-й Волоколамский проезд,Северо-Западный административный округ,район Щукино,А105; А800,1-й Волоколамский пр.,в центр,да,ГУП «Мосгортранс»,активна,1716155,"{type=Point, coordinates=[37.49033661, 55.80305908]}"
239,"«Почта», 1-й Волоколамский проезд (в центр)",37.49210035,55.80096192,1-й Волоколамский проезд,Северо-Западный административный округ,район Щукино,А105; А800,Почта,в центр,да,ГУП «Мосгортранс»,активна,1716156,"{type=Point, coordinates=[37.49210035, 55.80096192]}"
241,"«2-й Балтийский пер.», улица Усиевича (в центр)",37.52396967,55.80644299,улица Усиевича,Северный административный округ,район Аэропорт,А105К; А110,2-й Балтийский пер.,в центр,да,ГУП «Мосгортранс»,активна,1716158,"{type=Point, coordinates=[37.52396967, 55.80644299]}"
242,"«Ленинградский рынок - К/т Баку», улица Усиевича (в центр)",37.52821794,55.80531741,улица Усиевича,Северный административный округ,район Аэропорт,А105К; А110,Ленинградский рынок - К/т Баку,в центр,да,ГУП «Мосгортранс»,активна,1716159,"{type=Point, coordinates=[37.52821794, 55.80531741]}"
243,"«4-я ул. 8-го Марта», Планетная улица (в центр)",37.54618946,55.80222889,Планетная улица,Северный административный округ,район Аэропорт,А105К,4-я ул. 8-го Марта,в центр,да,ГУП «Мосгортранс»,активна,1716160,"{type=Point, coordinates=[37.54618946, 55.80222889]}"
244,"«1-я ул. 8-го Марта», Планетная улица (в центр)",37.54935307,55.80027904,Планетная улица,Северный административный округ,район Аэропорт,А105К,1-я ул. 8-го Марта,в центр,да,ГУП «Мосгортранс»,активна,1716161,"{type=Point, coordinates=[37.54935307, 55.80027904]}"
269,"«Поликлиника», Флотская улица (в центр)",37.50178932,55.85446122,Флотская улица,Северный административный округ,район Ховрино,А698; А70; А621,Поликлиника,в центр,да,ГУП «Мосгортранс»,активна,1716162,"{type=Point, coordinates=[37.50178932, 55.85446122]}"
270,"«Смольная ул.», Флотская улица (в центр)",37.49462719,55.85184812,Флотская улица,Северный административный округ,район Левобережный,А698; А70; А621,Смольная ул.,в центр,да,ГУП «Мосгортранс»,активна,1716163,"{type=Point, coordinates=[37.49462719, 55.85184812]}"
271,"«Пулковская ул.», Авангардная улица (в центр) (1)",37.48979253,55.84540275,Авангардная улица,Северный административный округ,Головинский район,А70; А621,Пулковская ул.,в центр,да,ГУП «Мосгортранс»,активна,1716164,"{type=Point, coordinates=[37.48979253, 55.84540275]}"
245,"«Петровско-Разумовская аллея», Петровско-Разумовская аллея (в центр) (1)",37.55895913,55.79487824,Петровско-Разумовская аллея,Северный административный округ,район Аэропорт,А105К; А384; А22; А84К; А84,Петровско-Разумовская аллея,в центр,да,ГУП «Мосгортранс»,активна,1716165,"{type=Point, coordinates=[37.55895913, 55.79487824]}"
246,"«1-я ул. 8-го Марта», Планетная улица (от центра) (1)",37.548412938,55.8011267664,Планетная улица,Северный административный округ,район Аэропорт,А105; А105К,1-я ул. 8-го Марта,от центра,да,ГУП «Мосгортранс»,активна,1716166,"{type=Point, coordinates=[37.548412938, 55.8011267664]}"
247,"«4-я ул. 8-го Марта», Планетная улица (от центра)",37.54517782,55.80315252,Планетная улица,Северный административный округ,район Аэропорт,А105; А105К,4-я ул. 8-го Марта,от центра,да,ГУП «Мосгортранс»,активна,1716167,"{type=Point, coordinates=[37.54517782, 55.80315252]}"
248,"«Ленинградский рынок - К/т Баку», Часовая улица (от центра)",37.52945405,55.80877473,Часовая улица,Северный административный округ,район Аэропорт,А105; А105К; А110,Ленинградский рынок - К/т Баку,от центра,да,ГУП «Мосгортранс»,активна,1716168,"{type=Point, coordinates=[37.52945405, 55.80877473]}"
249,"«Университет Путей сообщения», Часовая улица (от центра)",37.52573767,55.80972867,Часовая улица,Северный административный округ,район Аэропорт,А105; А105К; А110,Университет Путей сообщения,от центра,да,ГУП «Мосгортранс»,активна,1716169,"{type=Point, coordinates=[37.52573767, 55.80972867]}"
250,"«1-й Балтийский пер.», Часовая улица (от центра)",37.5202407,55.81113993,Часовая улица,Северный административный округ,район Аэропорт,А105; А105К; А110,1-й Балтийский пер.,от центра,нет,,активна,1716170,"{type=Point, coordinates=[37.5202407, 55.81113993]}"
252,"«Почта», 1-й Волоколамский проезд (от центра)",37.49206711,55.80137286,1-й Волоколамский проезд,Северо-Западный административный округ,район Щукино,А105; А800,Почта,от центра,да,ГУП «Мосгортранс»,активна,1716172,"{type=Point, coordinates=[37.49206711, 55.80137286]}"
253,"«1-й Волоколамский пр.», 1-й Волоколамский проезд (от центра)",37.49077163,55.80282528,1-й Волоколамский проезд,Северо-Западный административный округ,район Щукино,А105; А800,1-й Волоколамский пр.,от центра,да,ГУП «Мосгортранс»,активна,1716173,"{type=Point, coordinates=[37.49077163, 55.80282528]}"
254,"«2-й Пехотный пер.», 2-й Пехотный переулок (от центра)",37.488723,55.80451364,2-й Пехотный переулок,Северо-Западный административный округ,район Щукино,А105; А800,2-й Пехотный пер.,от центра,да,ГУП «Мосгортранс»,активна,1716174,"{type=Point, coordinates=[37.488723, 55.80451364]}"
255,"«52-я гор. б-ца», Пехотная улица (в центр)",37.48429864,55.80584452,Пехотная улица,Северо-Западный административный округ,район Щукино,А105; А800,52-я гор. б-ца,в центр,да,ГУП «Мосгортранс»,активна,1716175,"{type=Point, coordinates=[37.48429864, 55.80584452]}"
256,"«Детский сад», Сосновая улица (от центра)",37.48307023,55.80702966,Сосновая улица,Северо-Западный административный округ,район Щукино,А105; А800,Детский сад,от центра,нет,,активна,1716176,"{type=Point, coordinates=[37.48307023, 55.80702966]}"
257,"«Сосновая ул.», Сосновая улица (от центра)",37.47847049,55.80690064,Сосновая улица,Северо-Западный административный округ,район Щукино,А105; А800,Сосновая ул.,от центра,да,ГУП «Мосгортранс»,активна,1716177,"{type=Point, coordinates=[37.47847049, 55.80690064]}"
258,"«1-й Пехотный пер.», улица Академика Курчатова (от центра)",37.47660275,55.80425072,улица Академика Курчатова,Северо-Западный административный округ,район Щукино,А105; А800,1-й Пехотный пер.,от центра,да,ГУП «Мосгортранс»,активна,1716178,"{type=Point, coordinates=[37.47660275, 55.80425072]}"
259,"«Пулковская ул.», Авангардная улица (от центра)",37.48956885,55.84613923,Авангардная улица,Северный административный округ,Головинский район,А70; А621,Пулковская ул.,от центра,да,ГУП «Мосгортранс»,активна,1716179,"{type=Point, coordinates=[37.48956885, 55.84613923]}"
260,"«Флотская ул., 36», Флотская улица (от центра)",37.49234418,55.85079102,Флотская улица,Северный административный округ,Головинский район,А70; А621,"Флотская ул., 36",от центра,да,ГУП «Мосгортранс»,активна,1716180,"{type=Point, coordinates=[37.49234418, 55.85079102]}"
261,"«Поликлиника», Флотская улица (от центра)",37.50108072,55.85399188,Флотская улица,Северный административный округ,Головинский район,А698; А70; А621,Поликлиника,от центра,да,ГУП «Мосгортранс»,активна,1716181,"{type=Point, coordinates=[37.50108072, 55.85399188]}"
262,"«Школа № 648», Флотская улица (от центра)",37.50383408,55.8549718,Флотская улица,Северный административный округ,Головинский район,А698; А70; А621,Школа № 648,от центра,да,ГУП «Мосгортранс»,активна,1716182,"{type=Point, coordinates=[37.50383408, 55.8549718]}"
263,"«Флотская ул.», Флотская улица (от центра)",37.50949264,55.85700257,Флотская улица,Северный административный округ,Головинский район,А698; А70; А621,Флотская ул.,от центра,да,ГУП «Мосгортранс»,активна,1716183,"{type=Point, coordinates=[37.50949264, 55.85700257]}"
264,"«Солнечногорская ул.», Солнечногорская улица (от центра)",37.51478718,55.85677503,Солнечногорская улица,Северный административный округ,Головинский район,А698; А565; А70; А65; А65К,Солнечногорская ул.,от центра,да,ГУП «Мосгортранс»,активна,1716184,"{type=Point, coordinates=[37.51478718, 55.85677503]}"
265,"«Сенежская ул.,1 - Торговое училище», Сенежская улица (от центра)",37.51657768,55.85973631,Сенежская улица,Северный административный округ,Головинский район,А70,"Сенежская ул.,1 - Торговое училище",от центра,да,ГУП «Мосгортранс»,активна,1716185,"{type=Point, coordinates=[37.51657768, 55.85973631]}"
272,"«Ин-т Цветметавтоматика», Бескудниковский бульвар (в центр)",37.5624216962,55.8589115909,Бескудниковский бульвар,Северный административный округ,Бескудниковский район,А167; А114; АМ10; АТ47; Тб36; А154,Ин-т Цветметавтоматика,в центр,да,ГУП «Мосгортранс»,активна,1716186,"{type=Point, coordinates=[37.5624216962, 55.8589115909]}"
273,"«Ин-т Цветметавтоматика», Бескудниковский бульвар (от центра)",37.56240503,55.85738031,Бескудниковский бульвар,Северный административный округ,Бескудниковский район,А149; А167; А170; А114; АМ10; А154,Ин-т Цветметавтоматика,от центра,да,ГУП «Мосгортранс»,активна,1716187,"{type=Point, coordinates=[37.56240503, 55.85738031]}"
199,"«3-й Лихачевский пер.», Онежская улица (в центр)",37.52091766,55.84831504,Онежская улица,Северный административный округ,Головинский район,А123; А801; А565; А621; А90; А22; А72,3-й Лихачевский пер.,в центр,да,ГУП «Мосгортранс»,активна,1716188,"{type=Point, coordinates=[37.52091766, 55.84831504]}"
274,"«Нарвская ул. - Университет Гражданской Авиации», Кронштадтский бульвар (от центра) (1)",37.5031925,55.84459084,Кронштадтский бульвар,Северный административный округ,Головинский район,А65; А65К; А72,Нарвская ул. - Университет Гражданской Авиации,от центра,да,ГУП «Мосгортранс»,активна,1716189,"{type=Point, coordinates=[37.5031925, 55.84459084]}"
275,"«Акад. Туризма», Кронштадтский бульвар (от центра)",37.51280334,55.85174733,Кронштадтский бульвар,Северный административный округ,Головинский район,А65; А65К; А72,Акад. Туризма,от центра,да,ГУП «Мосгортранс»,активна,1716190,"{type=Point, coordinates=[37.51280334, 55.85174733]}"
276,"«Лихоборская наб.», Кронштадтский бульвар (от центра)",37.5160769692,55.852666487,Кронштадтский бульвар,Северный административный округ,Головинский район,А65; А65К; А72,Лихоборская наб.,от центра,да,ГУП «Мосгортранс»,активна,1716191,"{type=Point, coordinates=[37.5160769692, 55.852666487]}"
277,"«Солнечногорская ул.,15 - Торговое училище», Солнечногорская улица (от центра)",37.52010601,55.86081819,Солнечногорская улица,Северный административный округ,Головинский район,А698; А565; А65; А65К,"Солнечногорская ул.,15 - Торговое училище",от центра,да,ГУП «Мосгортранс»,активна,1716192,"{type=Point, coordinates=[37.52010601, 55.86081819]}"
278,"«Солнечногорская ул.,15 - Торговое училище», Солнечногорская улица (в центр)",37.51934402,55.86053444,Солнечногорская улица,Северный административный округ,Головинский район,А698; А565; А65; А65К,"Солнечногорская ул.,15 - Торговое училище",в центр,да,ГУП «Мосгортранс»,активна,1716193,"{type=Point, coordinates=[37.51934402, 55.86053444]}"
279,"«Лихоборская наб.», Кронштадтский бульвар (в центр)",37.5151294985,55.8525973596,Кронштадтский бульвар,Северный административный округ,Головинский район,А65; А65К; А72,Лихоборская наб.,в центр,да,ГУП «Мосгортранс»,активна,1716194,"{type=Point, coordinates=[37.5151294985, 55.8525973596]}"
280,"«Акад. Туризма», Кронштадтский бульвар (в центр)",37.51095173,55.85131969,Кронштадтский бульвар,Северный административный округ,Головинский район,А65; А65К; А72,Акад. Туризма,в центр,да,ГУП «Мосгортранс»,активна,1716195,"{type=Point, coordinates=[37.51095173, 55.85131969]}"
281,"«Нарвская ул. - Университет Гражданской Авиации», Кронштадтский бульвар (в центр)",37.50317031,55.8447254,Кронштадтский бульвар,Северный административный округ,Головинский район,А65; А65К; А72,Нарвская ул. - Университет Гражданской Авиации,в центр,да,ГУП «Мосгортранс»,активна,1716196,"{type=Point, coordinates=[37.50317031, 55.8447254]}"
282,"«Пр. Черепановых», Михалковская улица (в центр) (1)",37.5266201841,55.8396100803,Михалковская улица,Северный административный округ,район Коптево,А801; А87; А22; А72,Пр. Черепановых,в центр,да,ГУП «Мосгортранс»,активна,1716197,"{type=Point, coordinates=[37.5266201841, 55.8396100803]}"
283,"«Соболевский пр.», Михалковская улица (в центр)",37.5301106,55.83867407,Михалковская улица,Северный административный округ,район Коптево,А801; А87; А22; А72,Соболевский пр.,в центр,да,ГУП «Мосгортранс»,активна,1716198,"{type=Point, coordinates=[37.5301106, 55.83867407]}"
284,"«К/т Байкал», улица Прянишникова (от центра)",37.5406501216,55.8358742113,улица Прянишникова,Северный административный округ,Тимирязевский район,А801; А87; А22; А72,К/т Байкал,от центра,нет,,активна,1716199,"{type=Point, coordinates=[37.5406501216, 55.8358742113]}"
285,"«Университет Печати», улица Прянишникова (от центра) (1)",37.54320731,55.83519691,улица Прянишникова,Северный административный округ,Тимирязевский район,А801; А87; А22; А72,Университет Печати,от центра,нет,,активна,1716200,"{type=Point, coordinates=[37.54320731, 55.83519691]}"
286,"«Тимирязевская академия», Тимирязевская улица (в центр) (1)",37.54993836,55.83341524,Тимирязевская улица,Северный административный округ,Тимирязевский район,А801; А87; А22; А72,Тимирязевская академия,в центр,да,ГУП «Мосгортранс»,активна,1716201,"{type=Point, coordinates=[37.54993836, 55.83341524]}"
287,"«Пасечная ул.», Тимирязевская улица (в центр)",37.55276469,55.82979983,Тимирязевская улица,Северный административный округ,Тимирязевский район,А801; А87; А22; А72,Пасечная ул.,в центр,да,ГУП «Мосгортранс»,активна,1716202,"{type=Point, coordinates=[37.55276469, 55.82979983]}"
288,"«Парк Дубки», Тимирязевская улица (в центр)",37.56230019,55.81830039,Тимирязевская улица,Северный административный округ,Тимирязевский район,А801; А22; А72; А82; А692,Парк Дубки,в центр,да,ГУП «Мосгортранс»,активна,1716203,"{type=Point, coordinates=[37.56230019, 55.81830039]}"
289,"«50-я гор. б-ца», улица Вучетича (в центр)",37.55706274,55.81245767,улица Вучетича,Северный административный округ,Тимирязевский район,А22; А692,50-я гор. б-ца,в центр,да,ГУП «Мосгортранс»,активна,1716204,"{type=Point, coordinates=[37.55706274, 55.81245767]}"
290,"«Пр. Соломенной Сторожки», улица Вучетича (в центр)",37.56009979,55.80729184,улица Вучетича,Северный административный округ,Тимирязевский район,А22; А692,Пр. Соломенной Сторожки,в центр,да,ГУП «Мосгортранс»,активна,1716205,"{type=Point, coordinates=[37.56009979, 55.80729184]}"
291,"«Дмитровский пр.», Тимирязевская улица (в центр)",37.57133003,55.80737234,Тимирязевская улица,Северный административный округ,Тимирязевский район,А22; А72; А82; А692,Дмитровский пр.,в центр,да,ГУП «Мосгортранс»,активна,1716206,"{type=Point, coordinates=[37.57133003, 55.80737234]}"
292,"«Всероссийское Общество Слепых», 2-я Хуторская улица (от центра)",37.56798446,55.80496909,2-я Хуторская улица,Северный административный округ,Савёловский район,А22; А82; А692,Всероссийское Общество Слепых,от центра,да,ГУП «Мосгортранс»,активна,1716207,"{type=Point, coordinates=[37.56798446, 55.80496909]}"
293,"«2-я Хуторская ул.», Петровско-Разумовский проезд (в центр)",37.56360306,55.80245464,Петровско-Разумовский проезд,Северный административный округ,Савёловский район,А22; А82; А692,2-я Хуторская ул.,в центр,да,ГУП «Мосгортранс»,активна,1716208,"{type=Point, coordinates=[37.56360306, 55.80245464]}"
294,"«Писцовая ул.», Петровско-Разумовский проезд (в центр) (1)",37.56828288,55.7976739,Петровско-Разумовский проезд,Северный административный округ,Савёловский район,А22; А82; А692,Писцовая ул.,в центр,да,ГУП «Мосгортранс»,активна,1716209,"{type=Point, coordinates=[37.56828288, 55.7976739]}"
295,"«Петровско-Разумовский пр.», Петровско-Разумовский проезд (в центр)",37.56856682,55.7959313,Петровско-Разумовский проезд,Северный административный округ,Савёловский район,А22; А692,Петровско-Разумовский пр.,в центр,да,ГУП «Мосгортранс»,активна,1716210,"{type=Point, coordinates=[37.56856682, 55.7959313]}"
298,"«Петровско-Разумовский пр.», Петровско-Разумовский проезд (от центра)",37.56899242,55.79483867,Петровско-Разумовский проезд,Северный административный округ,Савёловский район,А22; А692,Петровско-Разумовский пр.,от центра,да,ГУП «Мосгортранс»,активна,1716211,"{type=Point, coordinates=[37.56899242, 55.79483867]}"
299,"«Писцовая ул.», Петровско-Разумовский проезд (от центра)",37.56806202,55.79828331,Петровско-Разумовский проезд,Северный административный округ,Савёловский район,А22; А82; А692,Писцовая ул.,от центра,да,ГУП «Мосгортранс»,активна,1716212,"{type=Point, coordinates=[37.56806202, 55.79828331]}"
300,"«2-я Хуторская ул.», Петровско-Разумовский проезд (от центра)",37.56409114,55.80233029,Петровско-Разумовский проезд,Северный административный округ,Савёловский район,А22; А82; А692,2-я Хуторская ул.,от центра,да,ГУП «Мосгортранс»,активна,1716213,"{type=Point, coordinates=[37.56409114, 55.80233029]}"
301,"«Всероссийское Общество Слепых», 2-я Хуторская улица (в центр)",37.56887588,55.80500294,2-я Хуторская улица,Северный административный округ,Савёловский район,А22; А82; А692,Всероссийское Общество Слепых,в центр,да,ГУП «Мосгортранс»,активна,1716214,"{type=Point, coordinates=[37.56887588, 55.80500294]}"
302,"«Дмитровский пр.», Тимирязевская улица (от центра)",37.57049117,55.80882552,Тимирязевская улица,Северный административный округ,Тимирязевский район,А604; А22; А72; А82; А692,Дмитровский пр.,от центра,да,ГУП «Мосгортранс»,активна,1716215,"{type=Point, coordinates=[37.57049117, 55.80882552]}"
303,"«50-я гор. б-ца», улица Вучетича (от центра)",37.55786267,55.81167022,улица Вучетича,Северный административный округ,Тимирязевский район,А604; А801; А22; А692,50-я гор. б-ца,от центра,да,ГУП «Мосгортранс»,активна,1716216,"{type=Point, coordinates=[37.55786267, 55.81167022]}"
304,"«Парк Дубки», Тимирязевская улица (от центра)",37.56165453,55.81949598,Тимирязевская улица,Северный административный округ,Тимирязевский район,А604; А801; А22; А72; А82; А692,Парк Дубки,от центра,да,ГУП «Мосгортранс»,активна,1716217,"{type=Point, coordinates=[37.56165453, 55.81949598]}"
305,"«Красностуденческий пр.», Тимирязевская улица (от центра)",37.55898612,55.82271493,Тимирязевская улица,Северный административный округ,Тимирязевский район,А801; А22; А72,Красностуденческий пр.,от центра,да,ГУП «Мосгортранс»,активна,1716218,"{type=Point, coordinates=[37.55898612, 55.82271493]}"
306,"«Пасечная ул.», Тимирязевская улица (от центра) (2)",37.5525004,55.83051264,Тимирязевская улица,Северный административный округ,Тимирязевский район,А801; А87; А22; А72,Пасечная ул.,от центра,да,ГУП «Мосгортранс»,активна,1716219,"{type=Point, coordinates=[37.5525004, 55.83051264]}"
307,"«Тимирязевская академия», Тимирязевская улица (от центра) (1)",37.55004232,55.83375504,Тимирязевская улица,Северный административный округ,Тимирязевский район,А801; А87; А22; А72,Тимирязевская академия,от центра,да,ГУП «Мосгортранс»,активна,1716220,"{type=Point, coordinates=[37.55004232, 55.83375504]}"
308,"«Университет Печати», улица Прянишникова (в центр) (1)",37.54191519,55.83571746,улица Прянишникова,Северный административный округ,Тимирязевский район,А801; А87; А22; А72,Университет Печати,в центр,да,ГУП «Мосгортранс»,активна,1716221,"{type=Point, coordinates=[37.54191519, 55.83571746]}"
309,"«К/т Байкал», Михалковская улица (от центра) (1)",37.53760115,55.83686083,Михалковская улица,Северный административный округ,район Коптево,А801; А87; А22; А72,К/т Байкал,от центра,нет,,активна,1716222,"{type=Point, coordinates=[37.53760115, 55.83686083]}"
323,"«Рыбокомбинат», Ижорская улица (от центра)",37.5048412609,55.8849515631,Ижорская улица,Северный административный округ,район Западное Дегунино,А799; А200; А656,Рыбокомбинат,от центра,да,ГУП «Мосгортранс»,активна,1716223,"{type=Point, coordinates=[37.5048412609, 55.8849515631]}"
324,"«Ижорская ул.», Ижорская улица (от центра)",37.51065136,55.88870379,Ижорская улица,Северный административный округ,район Западное Дегунино,А799; А200; А656,Ижорская ул.,от центра,да,ГУП «Мосгортранс»,активна,1716224,"{type=Point, coordinates=[37.51065136, 55.88870379]}"
325,"«15-й таксомоторный парк», улица Лавочкина (в центр)",37.48482432,55.86628947,улица Лавочкина,Северный административный округ,район Ховрино,А801; А200,15-й таксомоторный парк,в центр,да,ГУП «Мосгортранс»,активна,1716225,"{type=Point, coordinates=[37.48482432, 55.86628947]}"
327,"«К/т Волга», Дмитровское шоссе (в центр)",37.5424934335,55.8885827221,Дмитровское шоссе,Северный административный округ,Дмитровский район,А149; А763К; А763; АТ78,К/т Волга,в центр,да,ГУП «Мосгортранс»,активна,1716227,"{type=Point, coordinates=[37.5424934335, 55.8885827221]}"
332,"«Селигерская ул.», Дмитровское шоссе (в центр) (1)",37.54670927,55.86904594,Дмитровское шоссе,Северный административный округ,Бескудниковский район,АТ78,Селигерская ул.,в центр,нет,,активна,1716232,"{type=Point, coordinates=[37.54670927, 55.86904594]}"
335,"«7-й автобусный парк», Дмитровское шоссе (от центра) (4)",37.5651513586,55.8521440018,Дмитровское шоссе,Северный административный округ,Бескудниковский район,АТ56; АТ47; Тб36; А154; АТ78,7-й автобусный парк,от центра,да,ГУП «Мосгортранс»,активна,1716235,"{type=Point, coordinates=[37.5651513586, 55.8521440018]}"
336,"«Нижн. Лихоборы», Дмитровское шоссе (от центра) (4)",37.56835312,55.84736639,Дмитровское шоссе,Северный административный округ,Тимирязевский район,АТ56; АТ47; Тб36,Нижн. Лихоборы,от центра,да,ГУП «Мосгортранс»,активна,1716236,"{type=Point, coordinates=[37.56835312, 55.84736639]}"
339,"«434-е отделение связи», Дмитровское шоссе (в центр)",37.5730144028,55.8215652721,Дмитровское шоссе,Северный административный округ,Тимирязевский район,А604; А87; АМ10; АТ56; АТ47; АТ78,434-е отделение связи,в центр,да,ООО «Праймсайт»,активна,1716239,"{type=Point, coordinates=[37.5730144028, 55.8215652721]}"
340,"«Ул. Всеволода Вишневского», Дмитровское шоссе (в центр)",37.57784748,55.81266755,Дмитровское шоссе,Северный административный округ,Тимирязевский район,А604; А87; АМ10; АТ56; АТ47; АТ78,Ул. Всеволода Вишневского,в центр,да,ООО «Праймсайт»,активна,1716240,"{type=Point, coordinates=[37.57784748, 55.81266755]}"
341,"«Метро Дмитровская», Бутырская улица (в центр)",37.58130875,55.80662786,Бутырская улица,Северный административный округ,Савёловский район,АТ3; АТ29; АТ56; АТ47; АТ78,Метро Дмитровская,в центр,да,ГУП «Мосгортранс»,активна,1716241,"{type=Point, coordinates=[37.58130875, 55.80662786]}"
342,"«Бутырская ул., 62», Бутырская улица (в центр)",37.58301545,55.80184252,Бутырская улица,Северный административный округ,Савёловский район,АТ3; А87; АТ29; АМ10; АТ56; АТ47; АТ78,"Бутырская ул., 62",в центр,да,ООО «Праймсайт»,активна,1716242,"{type=Point, coordinates=[37.58301545, 55.80184252]}"
343,"«Бутырская ул., 46», Бутырская улица (в центр)",37.5833357215,55.800461473,Бутырская улица,Северный административный округ,Савёловский район,АТ3; А87; АТ29; АМ10; АТ56; АТ47; АТ78,"Бутырская ул., 46",в центр,да,ООО «Праймсайт»,активна,1716243,"{type=Point, coordinates=[37.5833357215, 55.800461473]}"
344,"«Савеловский вокзал», Бутырская улица (в центр)",37.58397332,55.79487456,Бутырская улица,Северный административный округ,Савёловский район,АТ3; АТ29; АМ10; АТ56; АТ47; А692; АТ78; А84К; А84,Савеловский вокзал,в центр,да,ООО «Праймсайт»,активна,1716244,"{type=Point, coordinates=[37.58397332, 55.79487456]}"
346,"«2-й Лесной пер.», улица Бутырский Вал (от центра)",37.58658429,55.78210613,улица Бутырский Вал,Центральный административный округ,Тверской район,АТ18; А12; АТ56; АТ78,2-й Лесной пер.,от центра,да,ГУП «Мосгортранс»,активна,1716245,"{type=Point, coordinates=[37.58658429, 55.78210613]}"
348,"«Ул. Сущевский Вал», Новослободская улица (от центра)",37.590714,55.79062955,Новослободская улица,Центральный административный округ,Тверской район,АТ3; АМ10; АТ56; АТ47; А72; А692; АТ78,Ул. Сущевский Вал,от центра,да,ООО «Праймсайт»,активна,1716246,"{type=Point, coordinates=[37.590714, 55.79062955]}"
349,"«Савеловский вокзал», Бутырская улица (от центра)",37.58463823,55.79569066,Бутырская улица,Северо-Восточный административный округ,Бутырский район,АТ56; АТ47; АТ78,Савеловский вокзал,от центра,да,ООО «Праймсайт»,активна,1716247,"{type=Point, coordinates=[37.58463823, 55.79569066]}"
350,"«Бутырская ул., 62», Бутырская улица (от центра) (1)",37.58323426,55.80339594,Бутырская улица,Северо-Восточный административный округ,Бутырский район,АТ3; А87; АТ29; АМ10; АТ56; АТ47; АТ78,"Бутырская ул., 62",от центра,да,ООО «Праймсайт»,активна,1716248,"{type=Point, coordinates=[37.58323426, 55.80339594]}"
351,"«Метро Дмитровская», Бутырская улица (от центра) (1)",37.58158147,55.80719327,Бутырская улица,Северо-Восточный административный округ,Бутырский район,АТ56; АТ47; АТ78,Метро Дмитровская,от центра,нет,,активна,1716249,"{type=Point, coordinates=[37.58158147, 55.80719327]}"
352,"«Ул. Всеволода Вишневского», Дмитровское шоссе (от центра) (1)",37.5780907275,55.8133694162,Дмитровское шоссе,Северный административный округ,Тимирязевский район,А87; АМ10; АТ56; АТ47; АТ78,Ул. Всеволода Вишневского,от центра,да,ГУП «Мосгортранс»,активна,1716250,"{type=Point, coordinates=[37.5780907275, 55.8133694162]}"
353,"«434-е отделение связи», Дмитровское шоссе (от центра)",37.57339366,55.82214075,Дмитровское шоссе,Северный административный округ,Тимирязевский район,А87; АМ10; АТ56; АТ47; АТ78,434-е отделение связи,от центра,да,ООО «Праймсайт»,активна,1716251,"{type=Point, coordinates=[37.57339366, 55.82214075]}"
355,"«К/т Комсомолец», Дмитровское шоссе (в центр) (1)",37.56996508,55.84105487,Дмитровское шоссе,Северный административный округ,Тимирязевский район,АТ56; АТ47; А82; А692; АТ78,К/т Комсомолец,в центр,да,ГУП «Мосгортранс»,активна,1716253,"{type=Point, coordinates=[37.56996508, 55.84105487]}"
356,"«Нижн. Лихоборы», Дмитровское шоссе (в центр) (1)",37.56732208,55.84729349,Дмитровское шоссе,Северный административный округ,Тимирязевский район,АТ56; АТ47; АТ78,Нижн. Лихоборы,в центр,да,ГУП «Мосгортранс»,активна,1716254,"{type=Point, coordinates=[37.56732208, 55.84729349]}"
357,"«7-й автобусный парк», Дмитровское шоссе (в центр) (1)",37.56590713,55.85030802,Дмитровское шоссе,Северный административный округ,район Западное Дегунино,АМ10; АТ56; АТ47; Тб36; АТ78,7-й автобусный парк,в центр,нет,,активна,1716255,"{type=Point, coordinates=[37.56590713, 55.85030802]}"
367,"«Лианозовский элмех. з-д», Дмитровское шоссе (от центра) (1)",37.54350786,55.89139449,Дмитровское шоссе,Северный административный округ,Дмитровский район,А149; А763К; А763; АТ78; А774; А92; А284; А928,Лианозовский элмех. з-д,от центра,да,ГУП «Мосгортранс»,активна,1716265,"{type=Point, coordinates=[37.54350786, 55.89139449]}"
368,"«М-н Спортмастер», Дмитровское шоссе (от центра)",37.57316568,55.82929303,Дмитровское шоссе,Северный административный округ,Тимирязевский район,АМ10; АТ56; АТ47; А82; А692; АТ78,М-н Спортмастер,от центра,да,ГУП «Мосгортранс»,активна,1716266,"{type=Point, coordinates=[37.57316568, 55.82929303]}"
369,"«Ул. Марш. Федоренко», Краснополянская улица (в центр)",37.48677795,55.88401518,Краснополянская улица,Северный административный округ,район Западное Дегунино,А200; А656,Ул. Марш. Федоренко,в центр,да,ГУП «Мосгортранс»,активна,1716267,"{type=Point, coordinates=[37.48677795, 55.88401518]}"
372,"«Херсонская ул., 32», Херсонская улица (в центр)",37.55954217,55.65535177,Херсонская улица,Юго-Западный административный округ,район Черёмушки,А246,"Херсонская ул., 32",в центр,да,ГУП «Мосгортранс»,активна,1716269,"{type=Point, coordinates=[37.55954217, 55.65535177]}"
374,"«Пехотная ул.», Волоколамское шоссе (в центр)",37.48238529,55.81133819,Волоколамское шоссе,Северо-Западный административный округ,район Щукино,А904К; А904; Тб82; АМ1; Тб70,Пехотная ул.,в центр,да,ГУП «Мосгортранс»,активна,1716270,"{type=Point, coordinates=[37.48238529, 55.81133819]}"
377,"«Ул. Серегина», Ленинградский проспект (в центр) (1)",37.54485023,55.79420677,Ленинградский проспект,Северный административный округ,Хорошёвский район,Тб6; Тб12; А904К; А905; А904; А105; Тб82; АМ1; Тб70; Тб65; АН1; Тб43,Ул. Серегина,в центр,да,ЗАО «Валль-СНГ»,активна,1716271,"{type=Point, coordinates=[37.54485023, 55.79420677]}"
378,"«Путевой дворец», Ленинградский проспект (в центр) (1)",37.54849025,55.79263254,Ленинградский проспект,Северный административный округ,Хорошёвский район,Тб12; А105; Тб82; АМ1; Тб70; Тб65; АН1,Путевой дворец,в центр,нет,,активна,1716272,"{type=Point, coordinates=[37.54849025, 55.79263254]}"
310,"«Пр. Черепановых», Михалковская улица (от центра)",37.52668729,55.83977396,Михалковская улица,Северный административный округ,район Коптево,А801; А87; А22; А72,Пр. Черепановых,от центра,да,ГУП «Мосгортранс»,активна,1716273,"{type=Point, coordinates=[37.52668729, 55.83977396]}"
312,"«М-н Оптика», Петровско-Разумовский проезд (от центра)",37.56965969,55.79220519,Петровско-Разумовский проезд,Северный административный округ,Савёловский район,АТ29; А22,М-н Оптика,от центра,да,ГУП «Мосгортранс»,активна,1716274,"{type=Point, coordinates=[37.56965969, 55.79220519]}"
313,"«Пр. Соломенной Сторожки», улица Вучетича (от центра)",37.56000307,55.80805865,улица Вучетича,Северный административный округ,Тимирязевский район,А604; А801; А22; А692,Пр. Соломенной Сторожки,от центра,да,ГУП «Мосгортранс»,активна,1716275,"{type=Point, coordinates=[37.56000307, 55.80805865]}"
314,"«Ижорская ул.», Ижорская улица (в центр)",37.5100582542,55.8887608432,Ижорская улица,Северный административный округ,Дмитровский район,А799; А200; А656,Ижорская ул.,в центр,да,ГУП «Мосгортранс»,активна,1716276,"{type=Point, coordinates=[37.5100582542, 55.8887608432]}"
315,"«Бусиново», улица Бусиновская Горка (от центра)",37.496070963,55.8817612874,улица Бусиновская Горка,Северный административный округ,район Западное Дегунино,А200; А656,Бусиново,от центра,да,ГУП «Мосгортранс»,активна,1716277,"{type=Point, coordinates=[37.496070963, 55.8817612874]}"
316,"«Краснополянская ул.», Краснополянская улица (в центр)",37.4880378105,55.8846550366,Краснополянская улица,Северный административный округ,район Западное Дегунино,А200; А656,Краснополянская ул.,в центр,да,ГУП «Мосгортранс»,активна,1716278,"{type=Point, coordinates=[37.4880378105, 55.8846550366]}"
317,"«Ижорская ул., 6», Ижорская улица (в центр)",37.501370277,55.8825159198,Ижорская улица,Северный административный округ,район Западное Дегунино,А799; А200; А656,"Ижорская ул., 6",в центр,да,ГУП «Мосгортранс»,активна,1716279,"{type=Point, coordinates=[37.501370277, 55.8825159198]}"
318,"«Ул. Марш. Федоренко», Краснополянская улица (от центра)",37.48590023,55.88337571,Краснополянская улица,Северный административный округ,район Западное Дегунино,А799; А200; А656,Ул. Марш. Федоренко,от центра,да,ГУП «Мосгортранс»,активна,1716280,"{type=Point, coordinates=[37.48590023, 55.88337571]}"
319,"«Краснополянская ул.», Краснополянская улица (от центра)",37.48930901,55.88488982,Краснополянская улица,Северный административный округ,район Западное Дегунино,А799; А200; А656,Краснополянская ул.,от центра,да,ГУП «Мосгортранс»,активна,1716281,"{type=Point, coordinates=[37.48930901, 55.88488982]}"
320,"«Ул. Бусиновская Горка», улица Бусиновская Горка (в центр)",37.493061,55.88546893,улица Бусиновская Горка,Северный административный округ,район Западное Дегунино,А799; А200; А656,Ул. Бусиновская Горка,в центр,да,ГУП «Мосгортранс»,активна,1716282,"{type=Point, coordinates=[37.493061, 55.88546893]}"
322,"«Ижорская ул., 6», Ижорская улица (от центра)",37.50083838,55.88171538,Ижорская улица,Северный административный округ,район Западное Дегунино,А799; А200; А656,"Ижорская ул., 6",от центра,да,ГУП «Мосгортранс»,активна,1716284,"{type=Point, coordinates=[37.50083838, 55.88171538]}"
392,"«Покровское-Глебово», Волоколамское шоссе (от центра) (1)",37.46984766,55.81533781,Волоколамское шоссе,Северо-Западный административный округ,район Покровское-Стрешнево,Тб82; АМ1,Покровское-Глебово,от центра,да,ГУП «Мосгортранс»,активна,1716285,"{type=Point, coordinates=[37.46984766, 55.81533781]}"
393,"«Б-ца МПС (к/ст, выс.)», Волоколамское шоссе (от центра)",37.45985969,55.81785581,Волоколамское шоссе,Северо-Западный административный округ,район Покровское-Стрешнево,Тб82; АМ1,"Б-ца МПС (к/ст, выс.)",от центра,нет,,активна,1716286,"{type=Point, coordinates=[37.45985969, 55.81785581]}"
394,"«М-н Спортмастер», Дмитровское шоссе (в центр)",37.57256424,55.82857132,Дмитровское шоссе,Северный административный округ,Тимирязевский район,АМ10; АТ56; АТ47; А82; А692; АТ78,М-н Спортмастер,в центр,нет,,активна,1716287,"{type=Point, coordinates=[37.57256424, 55.82857132]}"
395,"«Метро Тимирязевская», Дмитровское шоссе (в центр)",37.5746407233,55.818464922,Дмитровское шоссе,Северный административный округ,Тимирязевский район,А604; А87; АМ10; АТ56; АТ47; АТ78,Метро Тимирязевская,в центр,нет,,активна,1716288,"{type=Point, coordinates=[37.5746407233, 55.818464922]}"
396,"«Бутырская ул., 46», Бутырская улица (от центра) (1)",37.58409234,55.79983587,Бутырская улица,Северо-Восточный административный округ,Бутырский район,АТ3; АТ29; АТ56; АТ47; АТ78,"Бутырская ул., 46",от центра,да,ООО «Праймсайт»,активна,1716289,"{type=Point, coordinates=[37.58409234, 55.79983587]}"
397,"«Метро Тимирязевская», Дмитровское шоссе (от центра)",37.5751975678,55.8185429392,Дмитровское шоссе,Северный административный округ,Тимирязевский район,А87; АМ10; АТ56; АТ47; АТ78,Метро Тимирязевская,от центра,нет,,активна,1716290,"{type=Point, coordinates=[37.5751975678, 55.8185429392]}"
398,"«К/т Рига», Ботаническая улица (в центр)",37.58436933,55.84458929,Ботаническая улица,Северо-Восточный административный округ,район Марфино,А24К; А24; Тб73; А76; А803; А85; АМ9; Тб36,К/т Рига,в центр,да,ГУП «Мосгортранс»,активна,1716291,"{type=Point, coordinates=[37.58436933, 55.84458929]}"
399,"«Главный вход Ботанического сада», Ботаническая улица (в центр)",37.58570115,55.84262896,Ботаническая улица,Северо-Восточный административный округ,район Марфино,А24К; А24; Тб73; А76; А803; А85; АМ9; Тб36,Главный вход Ботанического сада,в центр,да,ГУП «Мосгортранс»,активна,1716292,"{type=Point, coordinates=[37.58570115, 55.84262896]}"
400,"«Ботаническая ул., 33», Ботаническая улица (в центр)",37.58858337,55.8402493,Ботаническая улица,Северо-Восточный административный округ,район Марфино,А24К; А24; Тб73; А76; А803; А85; АМ9; Тб36,"Ботаническая ул., 33",в центр,да,ГУП «Мосгортранс»,активна,1716293,"{type=Point, coordinates=[37.58858337, 55.8402493]}"
401,"«Ул. Акад. Комарова», Ботаническая улица (в центр)",37.60107644,55.82945279,Ботаническая улица,Северо-Восточный административный округ,район Марфино,А24К; А24; Тб73; А76; А803; А85; АМ9; Тб36,Ул. Акад. Комарова,в центр,да,ГУП «Мосгортранс»,активна,1716294,"{type=Point, coordinates=[37.60107644, 55.82945279]}"
439,"«Ботаническая ул., 33», Ботаническая улица (от центра)",37.58931158,55.83973132,Ботаническая улица,Северо-Восточный административный округ,Останкинский район,А24К; А24; Тб73; А76; А803; А85; АМ9; Тб36,"Ботаническая ул., 33",от центра,да,ГУП «Мосгортранс»,активна,1716295,"{type=Point, coordinates=[37.58931158, 55.83973132]}"
440,"«Главный вход Ботанического сада», Сусоколовское шоссе (от центра)",37.58667168,55.84383853,Сусоколовское шоссе,Северо-Восточный административный округ,район Марфино,А24К; А24; А76; А85; АМ9,Главный вход Ботанического сада,от центра,нет,,активна,1716296,"{type=Point, coordinates=[37.58667168, 55.84383853]}"
462,"«Тушинская ул.», улица Свободы (от центра)",37.45164585,55.82431894,улица Свободы,Северо-Западный административный округ,район Покровское-Стрешнево,Тм6; Тб70; А248,Тушинская ул.,от центра,да,ГУП «Мосгортранс»,активна,1716299,"{type=Point, coordinates=[37.45164585, 55.82431894]}"
464,"«Новопоселковая ул.», Лодочная улица (в центр)",37.44191282,55.8372167,Лодочная улица,Северо-Западный административный округ,район Южное Тушино,Тм6,Новопоселковая ул.,в центр,да,ГУП «Мосгортранс»,активна,1716301,"{type=Point, coordinates=[37.44191282, 55.8372167]}"
469,"«НИИАТ», улица Героев Панфиловцев (от центра) (1)",37.409238498,55.8548098743,улица Героев Панфиловцев,Северо-Западный административный округ,район Северное Тушино,Тм6,НИИАТ,от центра,да,ГУП «Мосгортранс»,активна,1716306,"{type=Point, coordinates=[37.409238498, 55.8548098743]}"
471,"«Талдомская ул.», Коровинское шоссе (в центр)",37.52718211,55.87431805,Коровинское шоссе,Северный административный округ,район Западное Дегунино,А194; А215К; А656; А672; АТ56,Талдомская ул.,в центр,да,ГУП «Мосгортранс»,активна,1716308,"{type=Point, coordinates=[37.52718211, 55.87431805]}"
402,"«Ул. Кашенкин Луг», Ботаническая улица (в центр)",37.60214656,55.82440347,Ботаническая улица,Северо-Восточный административный округ,район Марфино,А24К; А24; А76; А803; А85,Ул. Кашенкин Луг,в центр,да,ГУП «Мосгортранс»,активна,1716309,"{type=Point, coordinates=[37.60214656, 55.82440347]}"
403,"«Телецентр», улица Академика Королёва (в центр)",37.60417904,55.8213684,улица Академика Королёва,Северо-Восточный административный округ,Останкинский район,А24К; А24; Тб73; А85; АМ9; Тб36,Телецентр,в центр,да,ООО «Праймсайт»,активна,1716310,"{type=Point, coordinates=[37.60417904, 55.8213684]}"
404,"«Останкинский пруд», улица Академика Королёва (в центр)",37.6124959144498,55.8213580592398,улица Академика Королёва,Северо-Восточный административный округ,Останкинский район,А24К; А24; Тб73; А85; АМ9; Тб36,Останкинский пруд,в центр,да,ЗАО «Валль-СНГ»,активна,1716311,"{type=Point, coordinates=[37.61249591444981, 55.82135805923984]}"
405,"«Экскурсионный корпус телебашни», Новомосковская улица (в центр)",37.61738366,55.81684894,Новомосковская улица,Северо-Восточный административный округ,Останкинский район,А24К; А24; А85; А15; АТ13,Экскурсионный корпус телебашни,в центр,да,ГУП «Мосгортранс»,активна,1716312,"{type=Point, coordinates=[37.61738366, 55.81684894]}"
406,"«2-я Новоостанкинская ул.», Новомосковская улица (в центр)",37.61808166,55.81417973,Новомосковская улица,Северо-Восточный административный округ,Останкинский район,А24К; А24; А85; А15; АТ13,2-я Новоостанкинская ул.,в центр,да,ГУП «Мосгортранс»,активна,1716313,"{type=Point, coordinates=[37.61808166, 55.81417973]}"
407,"«Калибровская ул.», Звёздный бульвар (в центр)",37.62109899,55.8118695,Звёздный бульвар,Северо-Восточный административный округ,Останкинский район,А85,Калибровская ул.,в центр,нет,,активна,1716314,"{type=Point, coordinates=[37.62109899, 55.8118695]}"
408,"«Звездный бульв.», Звёздный бульвар (в центр)",37.62836544,55.8131772,Звёздный бульвар,Северо-Восточный административный округ,Останкинский район,А85,Звездный бульв.,в центр,нет,,активна,1716315,"{type=Point, coordinates=[37.62836544, 55.8131772]}"
409,"«6-й Новоостанкинский пр.», 6-й Новоостанкинский проезд (от центра)",37.63212149,55.81555838,6-й Новоостанкинский проезд,Северо-Восточный административный округ,Останкинский район,А85,6-й Новоостанкинский пр.,от центра,да,ГУП «Мосгортранс»,активна,1716316,"{type=Point, coordinates=[37.63212149, 55.81555838]}"
410,"«Ул. Цандера», улица Цандера (от центра) (1)",37.6306705,55.81782669,улица Цандера,Северо-Восточный административный округ,Останкинский район,А85,Ул. Цандера,от центра,да,ГУП «Мосгортранс»,активна,1716317,"{type=Point, coordinates=[37.6306705, 55.81782669]}"
411,"«Ул. Кондратюка», улица Кондратюка (в центр)",37.6332174,55.81891731,улица Кондратюка,Северо-Восточный административный округ,Останкинский район,А85,Ул. Кондратюка,в центр,да,ГУП «Мосгортранс»,активна,1716318,"{type=Point, coordinates=[37.6332174, 55.81891731]}"
412,"«Гост. Останкино», Ботаническая улица (в центр)",37.59479679,55.83355588,Ботаническая улица,Северо-Восточный административный округ,район Марфино,А24К; А24; Тб73; А803; А85; АМ9; Тб36,Гост. Останкино,в центр,да,ГУП «Мосгортранс»,активна,1716319,"{type=Point, coordinates=[37.59479679, 55.83355588]}"
413,"«Ул. Акад. Королева», Новомосковская улица (в центр)",37.61655979,55.8208519,Новомосковская улица,Северо-Восточный административный округ,Останкинский район,А24К; А24; А85; А15; АТ13,Ул. Акад. Королева,в центр,да,ГУП «Мосгортранс»,активна,1716320,"{type=Point, coordinates=[37.61655979, 55.8208519]}"
416,"«Метро Алексеевская», проспект Мира (в центр)",37.6369606,55.80911616,проспект Мира,Северо-Восточный административный округ,Останкинский район,Тб14; А85; АМ9; АН6; А903; А33,Метро Алексеевская,в центр,да,ГУП «Мосгортранс»,активна,1716321,"{type=Point, coordinates=[37.6369606, 55.80911616]}"
417,"«Новоалексеевская ул.», проспект Мира (в центр)",37.63619726,55.80497185,проспект Мира,Северо-Восточный административный округ,Останкинский район,Тб14; А85; АМ9; АН6; А33,Новоалексеевская ул.,в центр,да,ООО «Праймсайт»,активна,1716322,"{type=Point, coordinates=[37.63619726, 55.80497185]}"
420,"«Новоалексеевская ул.», проспект Мира (от центра) (1)",37.63705024,55.80523391,проспект Мира,Северо-Восточный административный округ,Алексеевский район,Тб14; А85; АМ9; АН6; А33,Новоалексеевская ул.,от центра,да,ООО «Праймсайт»,активна,1716324,"{type=Point, coordinates=[37.63705024, 55.80523391]}"
421,"«Метро Алексеевская», проспект Мира (от центра) (1)",37.63778119,55.80921754,проспект Мира,Северо-Восточный административный округ,Алексеевский район,Тб14; А85; АМ9; АН6; А33,Метро Алексеевская,от центра,да,ГУП «Мосгортранс»,активна,1716325,"{type=Point, coordinates=[37.63778119, 55.80921754]}"
422,"«Староалексеевская ул.», проспект Мира (от центра) (1)",37.63791977,55.81102634,проспект Мира,Северо-Восточный административный округ,Алексеевский район,Тб14; А85; АМ9; АН6; А33,Староалексеевская ул.,от центра,да,ООО «Праймсайт»,активна,1716326,"{type=Point, coordinates=[37.63791977, 55.81102634]}"
457,"«Метро Сокол», Ленинградский проспект (в центр)",37.50739701,55.80641674,Ленинградский проспект,Северный административный округ,район Сокол,А175; Тб82; АМ1; Тб70,Метро Сокол,в центр,да,ГУП «Мосгортранс»,активна,1716330,"{type=Point, coordinates=[37.50739701, 55.80641674]}"
458,"«Пищевой ин-т», Волоколамское шоссе (в центр) (1)",37.49955887,55.80789141,Волоколамское шоссе,Северный административный округ,район Сокол,А175; Тб82; АМ1; Тб70,Пищевой ин-т,в центр,да,ООО «Праймсайт»,активна,1716331,"{type=Point, coordinates=[37.49955887, 55.80789141]}"
459,"«Пехотная ул.», Авиационная улица (от центра)",37.48287667,55.81068655,Авиационная улица,Северо-Западный административный округ,район Щукино,Тм6; Тм15; Тм28; Тм30; Тм31,Пехотная ул.,от центра,нет,,активна,1716332,"{type=Point, coordinates=[37.48287667, 55.81068655]}"
427,"«Ул. Цандера», улица Цандера (в центр) (1)",37.63044273,55.81805839,улица Цандера,Северо-Восточный административный округ,Останкинский район,А85,Ул. Цандера,в центр,да,ГУП «Мосгортранс»,активна,1716333,"{type=Point, coordinates=[37.63044273, 55.81805839]}"
428,"«Звездный бульв.», Звёздный бульвар (от центра)",37.62537543,55.81365254,Звёздный бульвар,Северо-Восточный административный округ,Останкинский район,А85,Звездный бульв.,от центра,да,ГУП «Мосгортранс»,активна,1716334,"{type=Point, coordinates=[37.62537543, 55.81365254]}"
429,"«Калибровская ул.», Звёздный бульвар (от центра)",37.6207442838679,55.8128753495232,Звёздный бульвар,Северо-Восточный административный округ,Останкинский район,А85,Калибровская ул.,от центра,нет,,активна,1716335,"{type=Point, coordinates=[37.620744283867865, 55.812875349523196]}"
430,"«2-я Новоостанкинская ул.», Новомосковская улица (от центра)",37.61829629,55.81449523,Новомосковская улица,Северо-Восточный административный округ,Останкинский район,А24К; А24; А85; А15; АТ13,2-я Новоостанкинская ул.,от центра,да,ГУП «Мосгортранс»,активна,1716336,"{type=Point, coordinates=[37.61829629, 55.81449523]}"
431,"«Экскурсионный корпус телебашни», Новомосковская улица (от центра)",37.6175586,55.81747325,Новомосковская улица,Северо-Восточный административный округ,Останкинский район,А24К; А24; А85; А15; АТ13,Экскурсионный корпус телебашни,от центра,нет,,активна,1716337,"{type=Point, coordinates=[37.6175586, 55.81747325]}"
432,"«Ул. Акад. Королева», улица Академика Королёва (от центра)",37.6159211,55.82169934,улица Академика Королёва,Северо-Восточный административный округ,Останкинский район,А24К; А24; Тб73; А85; АМ9; Тб36,Ул. Акад. Королева,от центра,да,ООО «Праймсайт»,активна,1716338,"{type=Point, coordinates=[37.6159211, 55.82169934]}"
433,"«Останкинский пруд», улица Академика Королёва (от центра)",37.61176015,55.82175066,улица Академика Королёва,Северо-Восточный административный округ,Останкинский район,А24К; А24; Тб73; А85; АМ9; Тб36,Останкинский пруд,от центра,да,ЗАО «Валль-СНГ»,активна,1716339,"{type=Point, coordinates=[37.61176015, 55.82175066]}"
434,"«Телецентр», улица Академика Королёва (от центра)",37.6045616010601,55.821768006157,улица Академика Королёва,Северо-Восточный административный округ,Останкинский район,А24К; А24; Тб73; А85; АМ9; Тб36,Телецентр,от центра,да,ООО «Праймсайт»,активна,1716340,"{type=Point, coordinates=[37.60456160106011, 55.821768006157]}"
